the_geom,county,city_village_or_cdp,housing_type,complex_name,complex_address,units,acres,status,year,comment,conversion_date,cartodb_id,state,latitude,longitude,accuracy_score,accuracy_type,number,street,city,zip,country,source,fixedYear
0101000020E6100000B7F4C3639A2F52C0A99D06B1D87B4440,Suffolk,Baiting Hollow,COND,Vistas of Baiting Hollow,100 Fox Hill Dr.,21,8.0,PROP,2016,,,1996,New York,40.96755039999999,-72.74379820000001,1.0,street_address,100,Fox Hill Dr,Riverhead,,US,Google Script,2016.0
0101000020E6100000EDF5EE8FF74052C05917B7D100624440,Suffolk,Patchogue,APT,Waverly Management LLC,~120 Waverly Ave.,21,0.9,PROP,2019,,,1946,New York,40.76565,-73.01510999999999,1.0,place,,,Patchogue,11772.0,US,TIGER/Line® dataset from the US Census Bureau,2019.0
0101000020E6100000FA43334FAE6452C08C4CC0AF91614440,Nassau,New Cassel,COND,Cornerstone Proerties,Rose Pl.,11,,PROP,2014,AFFORD,,1000,New York,40.7622585,-73.573139,1.0,route,,Rose Pl,North Hempstead,,US,Google Script,2014.0
0101000020E61000008EEBDFF5996852C0325706D5066F4440,Nassau,Glen Cove,COND,Landing Cove,40 Hill St.,72,5.5,UC,2014,SRCIT,,22,New York,40.867396,-73.63439699999999,1.0,rooftop,40,Hill St,Glen Cove,11542.0,US,"NYS GIS Program Office, State Geographic Information Officer (GIO)",2014.0
0101000020E6100000C8618B38786952C019DC7B5D2B6A4440,Nassau,Glenwood Landng,COND,Glen Harbor Partners,Shore Rd.,60,5.2,PROP,2006,,,992,New York,40.8294484,-73.6479627,1.0,route,,Shore Rd,,,US,Google Script,2006.0
0101000020E61000005FF0694E5E6D52C02C9ACE4E065D4440,Nassau,Floral Park,APT,Conversion of Masons hall,29 Tulip Ave.,18,,PROP,2018,,,969,New York,40.726755,-73.708881,1.0,range_interpolation,29,Tulip Ave,Floral Park,11001.0,US,TIGER/Line® dataset from the US Census Bureau,2018.0
0101000020E61000003410CB660E6D52C00F2A711DE35C4440,Nassau,Floral Park,APT,Questus Capital,S. Tyson Av. & Mayflower,36,0.3,PROP,2016,,,970,New York,40.725681,-73.704004,1.0,intersection,,Mayflower Pl,Floral Park,11001.0,US,TIGER/Line® dataset from the US Census Bureau,2016.0
0101000020E6100000D0D1AA96746852C04DF564FED15D4440,Nassau,Garden City,COND,Fairhaven Properties,101 County Seat Dr.,150,25.0,PROP,2004,,,972,New York,40.732971,-73.632116,1.0,rooftop,101,County Seat Dr,Garden City,11530.0,US,"NYS GIS Program Office, State Geographic Information Officer (GIO)",2004.0
0101000020E61000006405BF0D310A52C0F06AB93313824440,Suffolk,Wheatley Heights,APT,Willoughby Commons,~5 Colonial Springs Rd.,264,16.1,PROP,2016,,,1929,New York,41.016211,-72.159244,0.8,place,,,Springs,11937.0,US,TIGER/Line® dataset from the US Census Bureau,2016.0
0101000020E610000027BC04A73E6752C0F4FA93F8DC514440,Nassau,Baldwin,COOP,Golden Age,2870 Grand Ave.,25,1.3,UC,2015,SRCIT-AFFORD,,35,New York,40.639556,-73.613199,1.0,rooftop,2870,Grand Ave,Baldwin,11510.0,US,"NYS GIS Program Office, State Geographic Information Officer (GIO)",2015.0
0101000020E6100000A28F9EC7CD6952C0CFC6003F994C4440,Nassau,Barnum Island,COND,Island Park Yacht Club,100 Baker Ct.,128,,BUILT,1984,,,52,New York,40.598426700000005,-73.6531848,1.0,street_address,100,Baker Ct,Hempstead,,US,Google Script,1984.0
0101000020E6100000584634CB2F6D52C0034B64D5D6644440,Nassau,Manhasset,APT,Manhasset Square,Route 25A & Community Dr.,355,16.0,PROP,2019,,,997,New York,40.787806200000006,-73.70604209999999,1.0,intersection,,,North Hempstead,11030.0,US,Google Script,2019.0
0101000020E610000084769840DB3D52C08DC756E1E0784440,Suffolk,Mount Sinai,APT,Harbor Village at Mount Sinai,950 Route 25A & Wylde Rd.,225,17.8,UC,2019,SRCIT,,1298,New York,40.94436279999999,-72.9665071,1.0,street_address,950,NY-25A,Brookhaven,11787.0,US,Google Script,2019.0
0101000020E6100000F2EEC8586D6752C08D9AAF928F5D4440,Nassau,Garden City,APT,Southern Land Company,555 Stewart Ave.,150,4.6,PROP,2019,,,973,New York,40.730944,-73.616049,1.0,range_interpolation,555,Stewart Ave,Garden City,11530.0,US,TIGER/Line® dataset from the US Census Bureau,2019.0
0101000020E6100000CA935ADE0B6852C02607A2DDD7594440,Nassau,Hempstead,APT,Adams Court,"12, 24, 36 Grove St.",54,,BUILT,1981 E,,,236,New York,40.701900200000004,-73.62572440000001,1.0,subpremise,24,Grove St,Hempstead,11549.0,US,Google Script,1981.0
0101000020E6100000079046AA945452C0C9491751C95F4440,Suffolk,North Babylon,COND,Deer Park Avenue Villas,Jacqueline Way,75,3.7,BUILT,2008,,,1110,New York,40.7483312,-73.3215738,1.0,route,,Jacqueline Way,Babylon,11703.0,US,Google Script,2008.0
0101000020E61000005A48C0E8726852C0852F0219F06E4440,Nassau,Glen Cove,APT,Glen Arms Apts.,"21, 31, 33 Brewster St.",184,4.2,BUILT,1973,,,16,New York,40.866702200000006,-73.6320135,1.0,subpremise,31,Brewster St,,11542.0,US,Google Script,1973.0
0101000020E610000073A0E293A93952C0DA95F14AED6C4440,Suffolk,Yaphank,COND,Country Pointe Meadows (part),Yaphank Woods Blvd&Boulevard W,451,,UC,2017,,,1381,New York,40.8509916,-72.9009752,1.0,route,,Yaphank Woods Blvd,Brookhaven,,US,Google Script,2017.0
0101000020E61000006A0CDF67015652C0B6589B1084664440,Suffolk,Dix Hills,COND,Stone Ridge Estates,Joseph La. & Deer Park Ave.,76,12.0,BUILT,2008,SRCIT,,1445,New York,40.8009053,-73.3438358,1.0,"establishment,point_of_interest",507,Deer Park Ave,Huntington,,US,Google Script,2008.0
0101000020E6100000783B67B0CE5C52C03AC9FBDDE0684440,Suffolk,West Hills,COND,Kensington Estates,1130 W. Jericho Tpke.,80,18.6,UC,2019,SRCIT,,1520,New York,40.8193624,-73.4501153,1.0,street_address,1130,W Jericho Turnpike,Huntington,11753.0,US,Google Script,2019.0
0101000020E61000006B781FEC396B52C0479451C0D14A4440,Nassau,Long Beach,COND,Sandcastles,"730,750 W. Broadway",80,1.5,BUILT,1985,,,608,New York,40.5845261,-73.6754103,1.0,route,,W Broadway,,11561.0,US,Google Script,1985.0
0101000020E61000002E895869F76A52C0D19BE50D8B5F4440,Nassau,Garden City Park,COND,Beechwood at New Hyde Park,Eastern Dr. & Pubins La.,14,1.1,BUILT,1988,,,655,New York,40.746431099999995,-73.67135079999998,1.0,intersection,,,North Hempstead,14730.0,US,Google Script,1988.0
0101000020E610000039B12C3D3F6D52C037925F9A7D6B4440,Nassau,Manorhaven,APT,---,"54, 56 Sintsink Dr. E.",18,0.6,BUILT,1979,,,750,New York,40.8397706,-73.7069848,1.0,subpremise,56,Sintsink Dr E,North Hempstead,11050.0,US,Google Script,1979.0
0101000020E61000006224C511356D52C060217365506B4440,Nassau,Manorhaven,APT,---,"42, 44 Sintsink Dr. E.",32,1.2,BUILT,1982,,,751,New York,40.838390999999994,-73.70636409999999,1.0,subpremise,44,Sintsink Dr E,North Hempstead,11050.0,US,Google Script,1982.0
0101000020E610000013C5F539886952C0191B5F20AD664440,Nassau,Roslyn,COND,Roslyn Landing,504 Grist Mill Cir.,78,11.7,BUILT,2019,,,835,New York,40.802158399999996,-73.64893959999999,1.0,street_address,504,Grist Mill Cir,North Hempstead,11576.0,US,Google Script,2019.0
0101000020E6100000AB0C3E28036352C0DFFEB7EDD6644440,Nassau,Jericho,COND,Hamlet East,Foxwood Dr. & Jericho Tpke.,162,34.0,BUILT,1987,,,924,New York,40.787809100000004,-73.5470677,1.0,intersection,,,Oyster Bay,11753.0,US,Google Script,1987.0
0101000020E6100000610619B7076252C05193CFE1106F4440,Nassau,Oyster Bay,COND,Mariner's Walk,Mariner's Walk & South St.,28,1.9,BUILT,2008,,,940,New York,40.8677027,-73.5317209,1.0,intersection,,,Oyster Bay,11771.0,US,Google Script,2008.0
0101000020E6100000DD5F3DEE5B5E52C0E9B81AD995664440,Nassau,Woodbury,COND,Eagle Chase at Woodbury,Eagle Chase St. & Sunnyside,100,28.0,BUILT,1988,,,955,New York,40.801448,-73.474361,1.0,route,,Eagle Chase,Oyster Bay,11797.0,US,Google Script,1988.0
0101000020E6100000DC018D88988F5DC0CA5D3A9CAF064140,Nassau,Woodbury,COND,Woodbury Village,Village La. & Jericho Tpke.,152,14.0,BUILT,1976,,,963,New York,34.0522342,-118.24368490000002,1.0,"locality,political",,,,11797.0,US,Google Script,1976.0
0101000020E6100000B5AFF2BA345552C047BF6CF1DF594440,Suffolk,Babylon,COND,Village Park,Rosebud La. & Park Ave.,14,1.4,BUILT,2015,,,1055,New York,40.7021467,-73.3313434,1.0,route,,Park Ave,Babylon,11702.0,US,Google Script,2015.0
0101000020E6100000F369BA43AF1A52C07BCCF6D7E18A4440,Suffolk,Southold,COND,Eastwind Shores,51820 Rte. 48,10,2.5,BUILT,1984,,,1906,New York,41.0850172,-72.4169473,1.0,street_address,51820,County Rd 48,Southold,11971.0,US,Google Script,1984.0
0101000020E6100000D244E91C4D1852C026C79DD2C18D4440,Suffolk,Greenport West,APT,Vineyard View,~62800 North Rd.,50,17.3,UC,2019,AFFORD,,1904,New York,41.1074775,-72.3797066,1.0,street_address,62800,N Rd,Southold,,US,Google Script,2019.0
0101000020E61000009492D4F8BB1752C0EF682D16D08C4440,Suffolk,Greenport West,COOP,Driftwood Cove,500 9th St. & Route 25,101,5.1,BUILT,1974,APTCONV,1985,1900,New York,41.100100299999994,-72.3708479,1.0,intersection,,,Southold,,US,Google Script,1974.0
0101000020E610000005B28D2EA55552C0D704076AE7644440,Suffolk,Dix Hills,COND,Seasons at Dix Hills,652 Deer Park Ave.,86,9.0,PROP,2016,SRCIT,,1961,New York,40.7883122,-73.3382069,1.0,street_address,652,Deer Park Ave,Huntington,11729.0,US,Google Script,2016.0
0101000020E61000006021CE1EC35A52C0C9271A5A536F4440,Suffolk,Huntington,COND,Crystal Springs,"99, 131 Spring Rd.",15,4.3,PROP,2019,SRCIT,,1970,New York,40.869731200000004,-73.4181592,1.0,subpremise,131,Spring Rd,Huntington,11743.0,US,Google Script,2019.0
0101000020E61000004C07A172025752C04470B77FC0604440,Suffolk,Wyandanch,APT,Wyandanch Village (part),40 Station Dr. & Straight Path,30,,BUILT,2015,,,1173,New York,40.755874600000006,-73.35952440000001,1.0,street_address,40,Station Dr,Babylon,11798.0,US,Google Script,2015.0
0101000020E6100000583CF548834852C01E54E23AC65F4440,Suffolk,Oakdale,APT,Greenview Commons West,4180 Sunrise Hwy. & Pond Rd.,158,13.0,PROP,2014,SRCIT,,1992,New York,40.748236999999996,-73.133013,1.0,street_address,4180,Sunrise Hwy,Islip,11731.0,US,Google Script,2014.0
0101000020E6100000A59F70766B4052C00929893611724440,Suffolk,Coram,APT,Avalon Pines,Pine Rd. & C.R. 83,450,48.6,BUILT,2005,,,1190,New York,40.8911503,-73.006559,1.0,intersection,,,Brookhaven,11727.0,US,Google Script,2005.0
0101000020E6100000D87C5C1BAA3F52C0A019C407766C4440,Suffolk,Coram,COND,Country Pointe at Coram,Granny Rd. & Elisha Overton Rd,240,51.9,BUILT,2005,,,1194,New York,40.847352,-72.99475749999999,1.0,route,,Granny Rd,Brookhaven,11727.0,US,Google Script,2005.0
0101000020E61000008A71FE26146552C0BF9B6ED921604440,Nassau,New Cassel,COND,The Tiffany,54 School St.,79,1.9,BUILT,1992,SRCIT,,794,New York,40.751033,-73.579355,1.0,street_address,54,School St,North Hempstead,,US,Google Script,1992.0
0101000020E6100000FC1C7AE6C05752C02332079C00614440,Suffolk,Wheatley Heights,COOP,Wheatley Heights Garden Apts.,175 Main Ave.,78,4.9,BUILT,1973,APTCONV,1988,1168,New York,40.7578311,-73.3711487,1.0,street_address,175,Main Ave,Babylon,,US,Google Script,1973.0
0101000020E610000014AE47E1FA3F52C0BB0D6ABFB5744440,Suffolk,Coram,COND,Strathmore Court,Strathmore Ct. Dr. & Canal Rd.,440,63.9,BUILT,"1973, 1985",,,1215,New York,40.9117965,-72.9996875,1.0,intersection,,,Brookhaven,11727.0,US,Google Script,1973.0
0101000020E6100000424AA24D442F52C0DEC83CF207694440,Suffolk,Eastport,COND,Pepperidge Lake,Pepperidge Lake & E. Moriches,34,24.8,BUILT,1984,,,1239,New York,40.820555,-72.7385439,1.0,intersection,,,Brookhaven,13092.0,US,Google Script,1984.0
0101000020E61000005BD5ED47654152C0B6251708A76C4440,Suffolk,Farmingville,APT,Fairfield Hills South,Overlook Dr. & Bicycle Path,202,30.5,BUILT,2002,,,1241,New York,40.8488474,-73.0218067,1.0,intersection,,,Brookhaven,11738.0,US,Google Script,2002.0
0101000020E61000001266DAFE952F52C0079ACFB9DB7B4440,Suffolk,Baiting Hollow,COND,Bluffs at Baiting Hollow,101-618 Fox Hill Dr.,126,18.3,BUILT,1984,,,1729,New York,40.967643,-72.74353,1.0,street_address,101,Fox Hill Dr,Riverhead,,US,Google Script,1984.0
0101000020E61000001829EF3EA24252C0058E1546C4684440,Suffolk,Holtsville,COND,Waverly Estates,Gazebo La. & Express Drive S.,66,9.9,BUILT,1988,,,1247,New York,40.8184898,-73.0411527,1.0,route,,Gazebo Ln,Brookhaven,11742.0,US,Google Script,1988.0
0101000020E61000003CFF2C4C954152C0F0CAE48A41694440,Suffolk,Holtsville,COND,Wildwood Estates,Wildwood Cir &LIE S.Service Rd,58,7.6,BUILT,2014,,,1248,New York,40.822312700000005,-73.0247374,1.0,route,,Wildwood Cir,Brookhaven,501.0,US,Google Script,2014.0
0101000020E61000000C8519645C4652C04CE6B397C8674440,Suffolk,Lake Ronkonkoma,APT,Fairfield at Ronkonkoma,Village Plaza Dr.,60,7.4,BUILT,2005,,,1255,New York,40.8108091,-73.0993891,1.0,route,,Village Plaza Dr,Brookhaven,11779.0,US,Google Script,2005.0
0101000020E6100000AEB8382A376C52C0026729594E624440,Suffolk,Medford,COND,Victorian Homes,S.Service Rd. & California Ave,50,11.6,BUILT,1999,,,1278,New York,40.768015999999996,-73.690867,1.0,"bus_station,establishment,point_of_interest,transit_station",,,North Hempstead,11763.0,US,Google Script,1999.0
0101000020E6100000122C0E677E4052C0FF976BD102784440,Suffolk,Mount Sinai,COND,Ranches at Mount Sinai,Constantine Way & Rte. 25A,186,33.4,BUILT,2003,,,1301,New York,40.937585999999996,-73.007715,1.0,street_address,25,Constantine Way,Brookhaven,11766.0,US,Google Script,2003.0
0101000020E61000005D120C8C614352C09C36E33444774440,Suffolk,Port Jefferson,APT,Barnum House,Route 112 & Barnum Ave.,30,2.0,BUILT,2002,,,1333,New York,40.931769,-73.0528288,1.0,route,,NY-112,Brookhaven,11777.0,US,Google Script,2002.0
0101000020E610000091FB0C5E2A4452C0DD20FF7167744440,Suffolk,Port Jefferson Station,COND,Stonington,Old Town Rd. & Rte. 347,160,25.1,BUILT,1998,,,1355,New York,40.90940689999999,-73.0650859,1.0,intersection,,,Brookhaven,11776.0,US,Google Script,1998.0
0101000020E6100000AFEC82C1353952C029DB76908D6C4440,Suffolk,Yaphank,COND,Colonial Woods,William Floyd Parkway,360,87.4,BUILT,"1973,1983",,,1380,New York,40.8480702,-72.893906,1.0,route,,William Floyd Pkwy,Brookhaven,11980.0,US,Google Script,1973.0
0101000020E61000008AF0E5F42B6552C07B1C61ACCA604440,Nassau,New Cassel,APT,Apex Senior Housing,498 Union Ave.,38,,BUILT,2003,SRCIT-AFFORD,,790,New York,40.7561851,-73.5808079,1.0,street_address,498,Union Ave,North Hempstead,,US,Google Script,2003.0
0101000020E610000089DD8838E7FB51C0821FD5B0DF864440,Suffolk,Montauk,COND,Villas at Montauk Downs,10 Fairway Pl. & Fairview Ave.,24,2.5,BUILT,1980,,,1428,New York,41.0537015,-71.93598759999999,1.0,street_address,10,Fairway Pl,East Hampton,11954.0,US,Google Script,1980.0
0101000020E61000001752D90BE05A52C093F30F6CA66F4440,Suffolk,Huntington,COND,Parkridge,Parkridge Ct.,16,1.4,BUILT,1995,,,1468,New York,40.87226629999999,-73.4199247,1.0,route,,Parkridge Ct,Huntington,11743.0,US,Google Script,1995.0
0101000020E61000002A37514B736752C0B07BE184F85B4440,Nassau,Hempstead,APT,Antioch Citadel of Hope,107 James L. Burrell Ave.,36,1.0,BUILT,2000,SRCIT-AFFORD,,240,New York,40.718521700000004,-73.616412,1.0,premise,107,James L L Burrell Ave,Hempstead,11735.0,US,Google Script,2000.0
0101000020E61000001BD31396786752C02BA391CF2B5A4440,Nassau,Hempstead,APT,Gladys Gardens,"20,40 Gladys Ave.",30,1.0,BUILT,1972,AFFORD,,261,New York,40.704462,-73.61673499999999,1.0,street_address,20-40,Gladys Ave,Hempstead,11549.0,US,Google Script,1972.0
0101000020E6100000B8DAD48A805652C046BCD0B760724440,Suffolk,Northport,COND,Greentree at Northport,North Rd. & Lisa Dr.,63,28.2,BUILT,"1983,1986",,,1516,New York,40.8935766,-73.3515956,1.0,route,,North Rd,Huntington,11768.0,US,Google Script,1983.0
0101000020E6100000EDE016E2475A52C08A288128F3674440,Suffolk,West Hills,COND,Whitman Ridge,Whitman Ridge Dr.& Overhill Rd,17,4.6,BUILT,1993,,,1521,New York,40.8121081,-73.41063740000001,1.0,intersection,,,Huntington,13804.0,US,Google Script,1993.0
0101000020E6100000626E522C125052C0BB4ED99F7A5C4440,Suffolk,Bay Shore,APT,Chelsea Place,1010-128 Railroad Av & Park Av,26,0.6,BUILT,2009,,,1536,New York,40.722492200000005,-73.2511092,1.0,route,,Park Ave,Islip,11702.0,US,Google Script,2009.0
0101000020E61000001603DA0CA65052C09929ADBF255E4440,Suffolk,Bay Shore,COND,Dogwood Estates,Trim St. & N. Park Ave.,36,5.8,BUILT,1990,,,1539,New York,40.735527000000005,-73.26013490000001,1.0,intersection,,,Islip,11763.0,US,Google Script,1990.0
0101000020E610000086F24FBABE4352C04E147C2EAE5F4440,Suffolk,Bayport,COND,Lakeview Woods,414 Lakeview Ave.&Montauk Hwy.,32,8.2,BUILT,2009,,,1577,New York,40.7475031,-73.05851609999999,1.0,street_address,414,Lakeview Ave,Islip,11705.0,US,Google Script,2009.0
0101000020E610000010A15BF9F66852C06AF06371A4514440,Nassau,Oceanside,COOP,Theresa Gardens,Mahland Pl. & Long Beach Rd.,22,,BUILT,2007,SRCIT-AFFORD,,407,New York,40.6378309,-73.64007409999999,1.0,intersection,,,Hempstead,11572.0,US,Google Script,2007.0
0101000020E6100000DA7D7D63BE4452C0458545A055624440,Suffolk,Holbrook,APT,Saddle Rock,Saddle Rock Rd. & Sunrise Hwy.,330,41.6,BUILT,1995,,,1650,New York,40.7682381,-73.0741204,1.0,"establishment,point_of_interest",1000,Saddle Rock Rd,Islip,11741.0,US,Google Script,1995.0
0101000020E61000004427953A924D52C00A592778545D4440,Suffolk,Islip,APT,Meridian Lofts,16 Willow Ave. & Main St.,10,0.2,BUILT,2018,,,1674,New York,40.7291403,-73.2120501,1.0,premise,16,Willow Ave,Islip,11937.0,US,Google Script,2018.0
0101000020E6100000C6E0BC932A4752C02DF9E989F85E4440,Suffolk,Oakdale,COND,Willow Wood,Willow Wood Dr. & Locust Ave.,67,23.0,BUILT,2003,,,1692,New York,40.7419598,-73.11197370000001,1.0,intersection,,,Islip,11769.0,US,Google Script,2003.0
0101000020E61000003C3FD69D382052C0E02EFB75A7704440,Suffolk,Hampton Bays,COND,Canoe Place Landing,Canoe Place Landing,12,4.5,BUILT,2015,,,1766,New York,40.8801105,-72.5034556,1.0,route,,Canoe Place Rd,Southampton,11946.0,US,Google Script,2015.0
0101000020E6100000E7093A10C81952C0794B83EC06764440,Suffolk,North Sea,COND,Courtyards at Southampton,Savannah La. & Majors Path,50,8.8,BUILT,2007,,,1785,New York,40.9220863,-72.4028359,1.0,route,,Majors Path,Southampton,11968.0,US,Google Script,2007.0
0101000020E610000083B641927E1C52C055AD3BCC4D714440,Suffolk,Shinnecock Hills,COND,Pond Crossing at Southampton,Pond Crossing & Dellaria Ave.,16,4.5,BUILT,2009,,,1798,New York,40.885186700000006,-72.4452253,1.0,intersection,,,Southampton,11779.0,US,Google Script,2009.0
0101000020E610000071DB08D5171B52C031B6B52A2E724440,Suffolk,Tuckahoe,COND,Southampton Pointe,Village Green Dr & Tuckahoe La,50,7.3,BUILT,2018,,,1813,New York,40.8920339,-72.4233296,1.0,"establishment,point_of_interest",,,Southampton,10707.0,US,Google Script,2018.0
0101000020E610000049957208E65152C0631FAEE64A6C4440,Suffolk,Commack,COND,Indian Head Forest,Madder Lake Cir. & Indian Head,56,10.5,BUILT,1988,,,1848,New York,40.846035799999996,-73.27966509999999,1.0,intersection,,,Smithtown,11725.0,US,Google Script,1988.0
0101000020E6100000A6B228ECA24B52C02D6B5155576B4440,Suffolk,Hauppauge,COND,Hidden Ponds,Hidden Ponds Cir. & Rte. 347,300,47.6,BUILT,"1985, 1998",,,1855,New York,40.8386027,-73.18181899999999,1.0,intersection,,,Smithtown,11787.0,US,Google Script,1985.0
0101000020E6100000048BC3995F4E52C0CEAC003A27694440,Suffolk,Hauppauge,COND,Stonebridge Estates,Redan Dr. & Veterans Mem. Hwy.,105,135.0,BUILT,2001,,,1856,New York,40.8215096,-73.224585,1.0,"establishment,local_government_office,point_of_interest",100,Veterans Memorial Hwy,Islip,11787.0,US,Google Script,2001.0
0101000020E6100000719EFBBC734652C00A078C3F9B674440,Suffolk,Lake Ronkonkoma,APT,Alston Station Square(Phase I),"1000, 2000,3000 Mill Rd.",489,11.9,UC,2018,,,1252,New York,40.809425299999994,-73.1008141,1.0,street_address,1000,Mill Rd,Brookhaven,11779.0,US,Google Script,2018.0
0101000020E61000008315A75A0B3052C069A7E672837B4440,Suffolk,Baiting Hollow,COND,Golf Villas,4001-4015 The Fairway,16,3.6,BUILT,1995,,,1730,New York,40.964949,-72.750693,1.0,street_address,4001,The Fairway,Riverhead,,US,Google Script,1995.0
0101000020E61000008AAE0B3F386F52C0A47213B534674440,Nassau,Great Neck,APT,---,733-41 Middle Neck Rd,25,,PROP,2020,,,2019,New York,40.8062964,-73.7378083,,,,Middle Neck Rd,Great Neck,11024.0,US,manual,2020.0
0101000020E6100000E5F04927126652C00B7F86376B5C4440,Nassau,Uniondale,APT,Nassau Hub,TBD,500,70.0,PROP,2019,,,2017,New York,40.722021999999996,-73.5948586,,,,,Hempstead,11550.0,US,manual,2019.0
0101000020E6100000A80AFC975A5A52C0A20914B1886D4440,Suffolk,Huntington Station,APT,Havasay,~1080 New York Ave.,14,0.4,PROP,2019,,,1971,New York,40.855734000000005,-73.41177940000001,1.0,street_address,1080,New York Ave,Huntington,11746.0,US,Google Script,2019.0
0101000020E610000052488D64EA3352C054E7ACAAF2664440,Suffolk,Moriches,COND,South Moriches Realty,Montauk Hwy. & Frowein Rd.,96,16.4,PROP,2011,SRCIT,,1941,New York,40.804280600000006,-72.81118120000001,1.0,intersection,,,Brookhaven,11955.0,US,Google Script,2011.0
0101000020E61000002958E36C3A1152C0691EC022BF7E4440,Suffolk,Wainscott,APT,Town of East Hampton,780 Rte. 114,40,6.4,PROP,2018,AFFORD,,1958,New York,40.990208,-72.269191,1.0,street_address,780,NY-114,East Hampton,11975.0,US,Google Script,2018.0
0101000020E6100000F9F4D896016952C031957EC2D9594440,Nassau,West Hempstead,APT,AVF Carting property,40 Hempstead Gardens Dr.,60,2.0,PROP,2011,,,989,New York,40.701958000000005,-73.640722,1.0,rooftop,40,Hempstead Gardens Dr,West Hempstead,11552.0,US,"NYS GIS Program Office, State Geographic Information Officer (GIO)",2011.0
0101000020E6100000BB5F05F86E6552C0033E3F8C10544440,Nassau,Freeport,APT,Plaza West site,70 W. Sunrise Hwy.,250,,PROP,2017,SRCIT,,971,New York,40.656755,-73.584898,1.0,rooftop,70,W Sunrise Hwy,Freeport,11520.0,US,"NYS GIS Program Office, State Geographic Information Officer (GIO)",2017.0
0101000020E6100000FE9DEDD11B6952C02AE620E8684B4440,Nassau,Long Beach,APT,iStar Financial,"E.Broadway, W/Long Beach Blvd.",522,6.0,PROP,2013,,,991,New York,40.589139,-73.642323,1.0,place,,,Long Beach,11561.0,US,TIGER/Line® dataset from the US Census Bureau,2013.0
0101000020E6100000D447E00F3F6052C0F4A8F8BF235E4440,Nassau,Levittown,COND,schools site,Farmedge Rd.,247,11.0,PROP,2014,SRCIT,,978,New York,40.735465999999995,-73.503849,1.0,street_center,,Farmedge Rd,Levittown,11756.0,US,TIGER/Line® dataset from the US Census Bureau,2014.0
0101000020E61000002B4D4A41B76152C0C478CDAB3A634440,Nassau,Hicksville,APT,Sears site,195 N. Broadway,596,26.0,PROP,2018,,,1007,New York,40.775228000000006,-73.52681,1.0,rooftop,195,N Broadway,Hicksville,11801.0,US,"NYS GIS Program Office, State Geographic Information Officer (GIO)",2018.0
0101000020E6100000BD70E7C2486552C0FD304278B4594440,Nassau,Uniondale,APT,on A Holly Paterson grounds,875 Jerusalem Ave.,192,4.0,PROP,2017,SRCIT,,987,New York,40.70082,-73.582566,1.0,rooftop,875,Jerusalem Ave,Uniondale,11553.0,US,"NYS GIS Program Office, State Geographic Information Officer (GIO)",2017.0
0101000020E610000048179B560A5C52C0A06B5F402F5E4440,Suffolk,East Farmingdale,APT,Parkway Properties,380 Eastern Pkwy. & Denton Pl.,48,2.5,PROP,2014,,,1920,New York,40.735817,-73.438131,0.75,intersection,,Eastern Pkwy,Farmingdale,11735.0,US,TIGER/Line® dataset from the US Census Bureau,2014.0
0101000020E6100000C139234A7B5A52C0280CCA349A584440,Suffolk,North Amityville,COND,Bunt Development,330 Albany Ave.,80,6.0,PROP,2017,,,1924,New York,40.692206,-73.413775,1.0,rooftop,330,Albany Ave,Amityville,11701.0,US,"NYS GIS Program Office, State Geographic Information Officer (GIO)",2017.0
0101000020E6100000685E0EBBEF5952C0C0CFB870205A4440,Suffolk,North Amityville,APT,MR Property Builders,550 Albany Ave.,24,2.4,PROP,2018,,,1925,New York,40.704115,-73.40525699999999,1.0,rooftop,550,Albany Ave,Amityville,11701.0,US,"NYS GIS Program Office, State Geographic Information Officer (GIO)",2018.0
0101000020E61000000ED76A0F7B6252C0BEBF417BF5654440,Nassau,Jericho,COOP,Engel Berman,Old Cedar Swamp Rd.,70,3.4,PROP,2014,SRCIT,,1009,New York,40.796554,-73.538761,1.0,street_center,,Old Cedar Swamp Rd,Jericho,11753.0,US,TIGER/Line® dataset from the US Census Bureau,2014.0
0101000020E6100000967B8159A15E52C04E9A0645F3624440,Nassau,Plainview,APT,Capitol Seniors Housing,9 Gerhard Rd.,111,4.9,PROP,2019,SRCIT,,1010,New York,40.773049,-73.478598,1.0,rooftop,9,Gerhard Rd,Plainview,11803.0,US,"NYS GIS Program Office, State Geographic Information Officer (GIO)",2019.0
0101000020E61000005B5EB9DE365B52C0C423F1F274704440,Suffolk,Halesite,APT,Valencia Tavern site,236 Wall St.,24,0.6,PROP,2017,,,1966,New York,40.878569,-73.425224,1.0,range_interpolation,236,Wall St,Huntington,11743.0,US,TIGER/Line® dataset from the US Census Bureau,2017.0
0101000020E6100000A1A2EA573A5B52C02FFA0AD28C6F4440,Suffolk,Huntington,APT,Downtown Huntington,235-243 Main St.,84,1.4,PROP,2017,,,1968,New York,40.871485,-73.425436,1.0,rooftop,243,Main St,Huntington,11743.0,US,"NYS GIS Program Office, State Geographic Information Officer (GIO)",2017.0
0101000020E6100000EAD0E979375B52C0E21DE0490B6F4440,Suffolk,Huntington,APT,Sobel Vacuum site,431 New York Ave.,20,0.5,PROP,2017,,,1969,New York,40.867532000000004,-73.42526099999999,1.0,rooftop,431,New York Ave,Huntington,11743.0,US,"NYS GIS Program Office, State Geographic Information Officer (GIO)",2017.0
0101000020E6100000BC404981055052C07D04FEF0F3634440,Suffolk,Brentwood,APT,Renzon Concepcion,~121 2nd Ave.& Meadowbrook Dr.,44,5.0,PROP,2014,,,1983,New York,40.780882,-73.250336,1.0,place,,,Brentwood,11717.0,US,TIGER/Line® dataset from the US Census Bureau,2014.0
0101000020E6100000910BCEE0EF4A52C06138D73043674440,Suffolk,Islandia,APT,Motor Parkway Associates,~1380 Motor Pkwy.,250,,PROP,2019,,,1989,New York,40.806738,-73.170891,1.0,place,,,Islandia,11749.0,US,TIGER/Line® dataset from the US Census Bureau,2019.0
0101000020E6100000CE6DC2BD324652C02EE57CB1F7604440,Suffolk,Sayville,APT,Rechler,500 Lakeland Ave.,1365,116.1,PROP,2017,,,1993,New York,40.757559,-73.096847,1.0,rooftop,500,Lakeland Ave,Sayville,11782.0,US,"NYS GIS Program Office, State Geographic Information Officer (GIO)",2017.0
0101000020E61000008B4F01309E5252C02BF697DD93594440,Suffolk,West Islip,APT,Suffolk Realty Group,~64 Muncey Rd.,16,1.7,PROP,2018,,,1995,New York,40.699825,-73.29090500000001,1.0,place,,,West Islip,11795.0,US,TIGER/Line® dataset from the US Census Bureau,2018.0
0101000020E61000002A52616C212952C0DEE34C13B6694440,Suffolk,Westhampton Beach,COND,Rogers Associates,100 Rogers Ave.,52,9.3,PROP,2019,,,2012,New York,40.825869,-72.64266500000001,1.0,range_interpolation,100,Rogers Ave,Westhampton Beach,11978.0,US,TIGER/Line® dataset from the US Census Bureau,2019.0
0101000020E6100000B340BB438A1B52C07C444C8924884440,Suffolk,Southold,APT,Horatio Capital LLC,53315 Main Rd.,12,1.1,PROP,2019,,,2016,New York,41.063615000000006,-72.430314,1.0,rooftop,53315,Main Rd,Southold,11971.0,US,"NYS GIS Program Office, State Geographic Information Officer (GIO)",2019.0
0101000020E6100000E8F7FD9B174752C0AC55BB26A4674440,Suffolk,Lake Ronkonkoma,APT,Ronkonkoma Hub,1 Railroad Ave.,1450,53.0,UC,2012,,,2018,New York,40.809697,-73.110816,,,,Railroad Ave,Lake Ronkonkoma,11779.0,US,manual,2012.0
0101000020E61000004FAF9465886A52C02219726C3D4D4440,Nassau,Harbor Isle,APT,Avalon Bay,(Cibro oil storage site),172,11.5,PROP,2015,,,974,New York,40.603437,-73.664575,0.8,place,,,Harbor Isle,11558.0,US,TIGER/Line® dataset from the US Census Bureau,2015.0
0101000020E610000033198EE7B36752C0AF58688C7B5A4440,Nassau,Hempstead,APT,Renaissance Downtowns,Washington St. & Front St.,336,,PROP,2013,,,975,New York,40.70689539999999,-73.6203555,1.0,intersection,,,Hempstead,11549.0,US,Google Script,2013.0
0101000020E61000006BB8C83D5D6352C00E2F88484D5F4440,Nassau,Salisbury,COND,Carman Homes of Salisbury,723 Carman Ave.,20,,UC,2015,SRCIT,,468,New York,40.744546,-73.552566,1.0,rooftop,723,Carman Ave,Westbury,11590.0,US,"NYS GIS Program Office, State Geographic Information Officer (GIO)",2015.0
0101000020E6100000A0185932C75F52C03881E9B46E554440,Nassau,Seaford,COND,Seasons at Seaford,2165 Seaford Ave.,112,5.7,UC,2016,SRCIT,,473,New York,40.667441,-73.496533,1.0,rooftop,2165,Seaford Ave,Seaford,11783.0,US,"NYS GIS Program Office, State Geographic Information Officer (GIO)",2016.0
0101000020E61000007B140901D46A52C0FCDA9F30CD4A4440,Nassau,Long Beach,COND,The Renaissance,"164,170 W. Broadway",50,0.7,BUILT,1989,,,637,New York,40.5843869,-73.6691897,1.0,street_address,164-170,W Broadway,,11561.0,US,Google Script,1989.0
0101000020E6100000D5B2B5BE485E52C0C74B378941644440,Nassau,Plainview,COND,Hamlet on Olde Oyster Bay,L.I.E. & Round Swamp Rd.,370,55.0,BUILT,2001,,,946,New York,40.78325,-73.47319,1.0,place,,,Plainview,11803.0,US,TIGER/Line® dataset from the US Census Bureau,2001.0
0101000020E61000000D2CEC0ECE5A52C01953550D67564440,Suffolk,Amityville,APT,Town House Apartments,"94, 100 Park Ave.",20,1.0,BUILT,1981,,,1037,New York,40.675019899999995,-73.41882679999999,1.0,subpremise,100,Park Ave,Babylon,11701.0,US,Google Script,1981.0
0101000020E6100000E6400FB56D6852C0838593347F5A4440,Nassau,Hempstead,APT,131 Fulton Ave.,131 Fulton Ave.,40,,PROP,2017,,,976,New York,40.707007,-73.63169599999999,1.0,rooftop,131,Fulton Ave,Hempstead,11550.0,US,"NYS GIS Program Office, State Geographic Information Officer (GIO)",2017.0
0101000020E6100000EAE74D452A6852C01E32E54350574440,Nassau,Malverne Park Oaks,COND,---,Hempstead Av. & Atlas Ct.,12,1.0,PROP,2016,,,979,New York,40.682137,-73.62758000000001,1.0,street_center,,Hempstead Ave,Hempstead,11550.0,US,TIGER/Line® dataset from the US Census Bureau,2016.0
0101000020E61000006614CB2DAD6B52C0A437DC476E5D4440,Nassau,New Hyde Park,APT,---,300 S. 12th St.,71,0.5,PROP,2019,,,980,New York,40.729928,-73.682445,1.0,rooftop,300,S 12th St,New Hyde Park,11040.0,US,"NYS GIS Program Office, State Geographic Information Officer (GIO)",2019.0
0101000020E6100000A9143B1A876952C03D9AEAC9FC514440,Nassau,Oceanside,COOP,---,Atlantic Ave. & Terrell Ave.,50,,PROP,2004,,,981,New York,40.640527,-73.648871,1.0,intersection,,Atlantic Ave,Oceanside,11572.0,US,TIGER/Line® dataset from the US Census Bureau,2004.0
0101000020E6100000F46C567DAE6852C0965B5A0D89514440,Nassau,Oceanside,COND,South Nassau Hospital,Oceanside Rd.,16,1.0,PROP,2012,,,982,New York,40.636995,-73.63565,1.0,street_center,,Oceanside Rd,Oceanside,11572.0,US,TIGER/Line® dataset from the US Census Bureau,2012.0
0101000020E61000000DA661F8886C52C0144031B2646A4440,Nassau,Port Washington,COND,Knickerbocker Bay Club,Main St.,32,,UC,2014,SRCIT,,824,New York,40.831198,-73.69586,1.0,street_center,,Main St,Port Washington,11050.0,US,TIGER/Line® dataset from the US Census Bureau,2014.0
0101000020E6100000ECDB4944F85F52C0AC1BEF8E8C614440,Nassau,Bethpage,APT,Oyster Bay Gardens,857 S. Oyster Bay Rd.,48,,UC,2019,SRCIT-AFFORD,,873,New York,40.762102,-73.499528,1.0,rooftop,857,S Oyster Bay Rd,Bethpage,11714.0,US,"NYS GIS Program Office, State Geographic Information Officer (GIO)",2019.0
0101000020E610000041D3122BA36852C0DF6DDE3829504440,Nassau,Oceanside,COND,South Nassau Hospital,Hargale Rd. & Mott St.,32,1.6,PROP,2012,,,983,New York,40.626258,-73.634959,0.8,intersection,,Hargale Ct,Oceanside,11572.0,US,TIGER/Line® dataset from the US Census Bureau,2012.0
0101000020E610000026FF93BF7B5E52C02E5915E126634440,Nassau,Plainview,COND,Country Pointe at Plainview,Old Country Rd.& Round SwampRd,750,133.0,UC,2017,SRCIT,,945,New York,40.774623999999996,-73.476303,1.0,street_center,,Old Country Rd,Plainview,11803.0,US,TIGER/Line® dataset from the US Census Bureau,2017.0
0101000020E61000006AC999DCDE6952C0298C7791534C4440,Nassau,Barnum Island,APT,---,Pettit Pl. & Waterview Rd.,86,2.5,PROP,2014,,,968,New York,40.596300299999996,-73.65422740000001,1.0,intersection,,,Hempstead,,US,Google Script,2014.0
0101000020E61000009BAF928FDD6852C0C97553CA6B554440,Nassau,Rockville Centre,APT,Avalon,(Adjacent to Signature Place),177,2.0,PROP,2014,,,984,New York,40.667352,-73.63852299999999,1.0,place,,,Rockville Centre,11570.0,US,TIGER/Line® dataset from the US Census Bureau,2014.0
0101000020E610000078F17EDC7E6552C01024EF1CCA5E4440,Nassau,Uniondale,APT,Beechwood,695 Merrick Ave.,237,5.9,PROP,2018,,,985,New York,40.740543,-73.585868,1.0,rooftop,695,Merrick Ave,Westbury,11590.0,US,"NYS GIS Program Office, State Geographic Information Officer (GIO)",2018.0
0101000020E6100000BD70E7C2486552C0FD304278B4594440,Nassau,Uniondale,APT,on A Holly Paterson grounds,875 Jerusalem Ave.,180,6.0,PROP,2017,,,986,New York,40.70082,-73.582566,1.0,rooftop,875,Jerusalem Ave,Uniondale,11553.0,US,"NYS GIS Program Office, State Geographic Information Officer (GIO)",2017.0
0101000020E6100000698F17D2E16952C0BF2B82FFAD4A4440,Nassau,Long Beach,COND,---,340 Shore Rd.,325,1.2,PROP,2006,,,990,New York,40.583434999999994,-73.65440799999999,1.0,rooftop,340,Shore Rd,Long Beach,11561.0,US,"NYS GIS Program Office, State Geographic Information Officer (GIO)",2006.0
0101000020E61000007EC4AF58C36852C0467D923B6C6E4440,Nassau,Glen Cove,COND,Garvies Point (part),(North side Glen Cove Creek),541,,UC,2017,,,14,New York,40.862678,-73.636923,1.0,street_center,,N,Glen Cove,11542.0,US,TIGER/Line® dataset from the US Census Bureau,2017.0
0101000020E61000007EC4AF58C36852C0467D923B6C6E4440,Nassau,Glen Cove,COND,Garvies Point (part),(North side Glen Cove Creek),569,,UC,2017,,,15,New York,40.862678,-73.636923,1.0,street_center,,N,Glen Cove,11542.0,US,TIGER/Line® dataset from the US Census Bureau,2017.0
0101000020E610000006103E94686852C08940F50F226F4440,Nassau,Glen Cove,APT,Village Square,School St. & Brewster St.,146,2.7,UC,2018,,,30,New York,40.868227000000005,-73.631383,0.94,intersection,,Brewster St,Glen Cove,11542.0,US,TIGER/Line® dataset from the US Census Bureau,2018.0
0101000020E61000008787307E1A6852C085251E50365B4440,Nassau,Hempstead,APT,Estella Housing,178 Main St. & Bedell St.,96,,PROP,2014,AFFORD,,977,New York,40.712595,-73.62661700000001,1.0,intersection,,Bedell St,Hempstead,11550.0,US,TIGER/Line® dataset from the US Census Bureau,2014.0
0101000020E61000008A1C226E4E6D52C00A2C8029036B4440,Nassau,Manorhaven,APT,---,22 Sagamore Hill Dr.,16,0.6,PROP,2018,,,999,New York,40.836034000000005,-73.707912,1.0,rooftop,22,Sagamore Hill Dr,Port Washington,11050.0,US,"NYS GIS Program Office, State Geographic Information Officer (GIO)",2018.0
0101000020E6100000F3380CE6AF6952C075AF93FAB2664440,Nassau,Roslyn,COND,---,45 Lumber Rd.,27,1.4,PROP,2019,,,1002,New York,40.802337,-73.651361,1.0,rooftop,45,Lumber Rd,Roslyn,11576.0,US,"NYS GIS Program Office, State Geographic Information Officer (GIO)",2019.0
0101000020E61000003CF6B3588A5C52C0ED66463F1A5E4440,Nassau,Farmingdale,APT,---,155 Main St.,14,,PROP,2014,,,1004,New York,40.735176,-73.445944,1.0,rooftop,155,Main St,Farmingdale,11735.0,US,"NYS GIS Program Office, State Geographic Information Officer (GIO)",2014.0
0101000020E610000044C2F7FE065C52C05B785E2A365E4440,Nassau,Farmingdale,APT,The Lofts,285 Eastern Pkwy.,27,0.5,PROP,2013,,,1006,New York,40.736028000000005,-73.437927,1.0,rooftop,285,Eastern Pkwy,Farmingdale,11735.0,US,"NYS GIS Program Office, State Geographic Information Officer (GIO)",2013.0
0101000020E610000081E9B46E836652C0AAB69BE09B604440,Nassau,Syosset,COND,Syosset Park,L.I.E. & Robbins La.,525,,PROP,2016,,,1011,New York,40.754757,-73.601772,1.0,place,,,Syosset,11773.0,US,TIGER/Line® dataset from the US Census Bureau,2016.0
0101000020E61000001CEBE2361A5E52C062F3716DA8684440,Nassau,Woodbury,COND,Woodbury Villas,Jericho Tpke.(Woodbury CC),80,16.8,PROP,2008,,,1012,New York,40.817640000000004,-73.47035,1.0,place,,,Woodbury,11797.0,US,TIGER/Line® dataset from the US Census Bureau,2008.0
0101000020E6100000AC1919E42E5B52C0C362D4B5F6564440,Suffolk,Amityville,APT,Greentek Living,235 County Line Rd.,115,2.4,PROP,2016,,,1913,New York,40.679404,-73.424737,1.0,rooftop,235,County Line Rd,Amityville,11701.0,US,"NYS GIS Program Office, State Geographic Information Officer (GIO)",2016.0
0101000020E61000003A7AFCDEA65A52C038D73043E3554440,Suffolk,Amityville,APT,Mallard Landing,153 Merrick Rd. & Bennett Pl.,16,0.9,PROP,2016,,,1914,New York,40.670998,-73.41643499999999,0.98,intersection,,Bennett Pl,Amityville,11701.0,US,TIGER/Line® dataset from the US Census Bureau,2016.0
0101000020E6100000AED4B320945452C0D05FE811A3594440,Suffolk,Babylon,APT,---,16 George St.,30,1.6,PROP,2019,,,1915,New York,40.700289,-73.321541,1.0,rooftop,16,George St,Babylon,11702.0,US,"NYS GIS Program Office, State Geographic Information Officer (GIO)",2019.0
0101000020E6100000F705F4C29D5952C0A47213B534574440,Suffolk,Copiague,APT,Ardmore Place,1800 Great Neck Rd.,12,0.3,PROP,2019,,,1916,New York,40.681296,-73.400254,1.0,rooftop,1800,Great Neck Rd,Copiague,11726.0,US,"NYS GIS Program Office, State Geographic Information Officer (GIO)",2019.0
0101000020E61000005AF624B0396952C02AAA7EA5F35B4440,Nassau,Valley Stream,APT,Alma Realty,Rockaway Ave. & 4th St.,40,,PROP,2014,,,988,New York,40.718373,-73.64414599999999,1.0,intersection,,4th St,Garden City,11530.0,US,TIGER/Line® dataset from the US Census Bureau,2014.0
0101000020E6100000BB99D18F865452C078094E7D20614440,Suffolk,Deer Park,COND,Lucky Star industrial site,377 Carll's Path & Grand Blvd.,422,22.9,PROP,2018,,,1918,New York,40.758804,-73.320713,1.0,intersection,,Carlls Path,Deer Park,11729.0,US,TIGER/Line® dataset from the US Census Bureau,2018.0
0101000020E6100000D591239D817052C00A48FB1F60A94440,Nassau,New Cassel,APT,Grand Street School site,Grand St.,77,,PROP,2018,SRCIT-AFFORD,,1001,New York,41.323246000000005,-73.757911,0.67,place,,,Granite Springs,10527.0,US,TIGER/Line® dataset from the US Census Bureau,2018.0
0101000020E61000006B47718E3A5952C0266DAAEE91554440,Suffolk,Copiague,APT,Gail Grace Estates,840 Montauk Hwy.,16,0.5,PROP,2018,,,1917,New York,40.668516,-73.394199,1.0,rooftop,840,Montauk Hwy,Copiague,11726.0,US,"NYS GIS Program Office, State Geographic Information Officer (GIO)",2018.0
0101000020E6100000268FA7E5076D52C01B0FB6D8ED634440,Nassau,Manhasset,APT,Olive Hill at Manhasset,Community Dr.,72,3.2,PROP,2014,SRCIT-AFFORD,,998,New York,40.780696,-73.70360699999999,1.0,street_center,,Community Dr,Manhasset,11030.0,US,TIGER/Line® dataset from the US Census Bureau,2014.0
0101000020E61000000283A44FAB5752C076FC170802584440,Suffolk,Lindenhurst,APT,Lindenhurst Residences,75 E. Hoffman Ave.,260,7.1,PROP,2015,,,1923,New York,40.687562,-73.369831,1.0,rooftop,75,E Hoffman Ave,Lindenhurst,11757.0,US,"NYS GIS Program Office, State Geographic Information Officer (GIO)",2015.0
0101000020E6100000C8073D9B555C52C0B6696CAF055D4440,Nassau,Farmingdale,COND,The Hearthstone,776-780 Fulton St.,24,,PROP,2015,SRCIT,,1005,New York,40.726735999999995,-73.442725,1.0,rooftop,780,Fulton St,Farmingdale,11735.0,US,"NYS GIS Program Office, State Geographic Information Officer (GIO)",2015.0
0101000020E6100000A2293BFDA06252C09D7FBBECD7614440,Nassau,Hicksville,COOP,Cantiague Commons,449 West John St.,390,15.2,PROP,2009,SRCIT,,1008,New York,40.764402000000004,-73.541076,1.0,rooftop,449,W John St,Hicksville,11801.0,US,"NYS GIS Program Office, State Geographic Information Officer (GIO)",2009.0
0101000020E6100000AB7823F3C85952C00DFAD2DB9F594440,Suffolk,North Amityville,COND,Clay Commons,173 45th St. & Prospect St.,30,2.0,PROP,2018,,,1927,New York,40.700191,-73.40289,1.0,intersection,,45th St,Copiague,11726.0,US,TIGER/Line® dataset from the US Census Bureau,2018.0
0101000020E6100000D3669C86A85452C05FD38382525C4440,Suffolk,North Babylon,APT,Parkway Village Estates,766-768 Deer Park Ave.,40,2.0,PROP,2018,,,1928,New York,40.721268,-73.322786,1.0,rooftop,766,Deer Park Ave,North Babylon,11703.0,US,"NYS GIS Program Office, State Geographic Information Officer (GIO)",2018.0
0101000020E61000003A07CF84265B52C06BBB09BE69564440,Nassau,East Massapequa,COOP,Golden Age,County Line Rd.,34,,PROP,2000,SRCIT,,1003,New York,40.675102,-73.424226,1.0,street_center,,County Line Rd,Massapequa,11758.0,US,TIGER/Line® dataset from the US Census Bureau,2000.0
0101000020E61000001CF0F961844E52C0E5B33C0FEE704440,Suffolk,East Patchogue,APT,The Grove,400 E. Main St. & Grove St.,80,2.8,PROP,2018,,,1935,New York,40.882265000000004,-73.22683,0.6,intersection,,E Main St,Kings Park,11754.0,US,TIGER/Line® dataset from the US Census Bureau,2018.0
0101000020E6100000D8F50B76C34252C041481630816B4440,Suffolk,Farmingville,COND,Arboretum at Farmingville,~524 Horseblock Rd.,241,61.6,PROP,2015,,,1936,New York,40.83988,-73.04318,1.0,place,,,Farmingville,11738.0,US,TIGER/Line® dataset from the US Census Bureau,2015.0
0101000020E6100000DDEA39E97D3352C0546EA296E66E4440,Suffolk,Manorville,APT,Sun River Town Homes,N.Sunrise Hwy.Service &Jerusa.,125,51.9,PROP,2018,,,1937,New York,40.866412,-72.80456,1.0,place,,,Manorville,11949.0,US,TIGER/Line® dataset from the US Census Bureau,2018.0
0101000020E610000044183F8D7B3C52C0240ED940BA724440,Suffolk,Middle Island,APT,Middle Island Town Homes,Rocky Island & 80 Rocky Pt. Rd,96,13.6,PROP,2017,,,1938,New York,40.896309,-72.945041,1.0,street_center,,Rocky Point Rd,Middle Island,11953.0,US,TIGER/Line® dataset from the US Census Bureau,2017.0
0101000020E6100000FC523F6F2A6552C0494D1652D9604440,Nassau,New Cassel,APT,Apex II,508 Union Ave.,35,,BUILT,2008,AFFORD,,789,New York,40.7566321,-73.580715,1.0,street_address,508,Union Ave,North Hempstead,,US,Google Script,2008.0
0101000020E6100000BEBF417BF55652C0D95DA0A4C0604440,Suffolk,Wyandanch,APT,Wyandanch Village (Bldg. E),1621 Straight Path,124,1.4,UC,2018,AFFORD,,1171,New York,40.755879,-73.358733,1.0,rooftop,1621,Straight Path,Wyandanch,11798.0,US,"NYS GIS Program Office, State Geographic Information Officer (GIO)",2018.0
0101000020E61000009B560A815C3352C015ADDC0BCC684440,Suffolk,Center Moriches,COND,Vineyards at Brookfield,210 Brookfield Ave.,146,28.6,UC,2019,SRCIT,,1182,New York,40.818727,-72.802521,1.0,rooftop,210,Brookfield Ave,Center Moriches,11934.0,US,"NYS GIS Program Office, State Geographic Information Officer (GIO)",2019.0
0101000020E6100000D5EC8156604052C0A9F6E978CC704440,Suffolk,Coram,APT,Concern at Port Jefferson,"~1625 Rte. 112 , Pt. Jeff. Sta",77,10.9,UC,2019,AFFORD,,1193,New York,40.881240000000005,-73.00588,1.0,place,,,Coram,11727.0,US,TIGER/Line® dataset from the US Census Bureau,2019.0
0101000020E6100000BE1589096A5952C00E2DB29DEF654440,Suffolk,Center Moriches,COND,Echo Pond,Echo La.,50,11.9,UC,2019,,,1181,New York,40.796375,-73.397097,1.0,street_center,,Echo Ln,Melville,11747.0,US,TIGER/Line® dataset from the US Census Bureau,2019.0
0101000020E61000004A7D59DAA94052C08A56EE05667B4440,Suffolk,Miller Place,COND,Miller Beach Surf Club site,23 Harbor Beach Rd.,20,5.1,PROP,2019,,,1939,New York,40.964051,-73.010367,1.0,rooftop,23,Harbor Beach Rd,Miller Place,11764.0,US,"NYS GIS Program Office, State Geographic Information Officer (GIO)",2019.0
0101000020E61000007AFCDEA63F4552C0569A94826E6F4440,Suffolk,Centereach,APT,Jefferson's Ferry (expan.),,72,,PROP,2018,LIFECARE,,1931,New York,40.87056,-73.08201,1.0,place,,,Centereach,11720.0,US,TIGER/Line® dataset from the US Census Bureau,2018.0
0101000020E61000002AE4A5F6FD2E52C08A0453CDAC6B4440,Suffolk,Eastport,COND,Ranches at Eastport,Hamptons Court Dr.&Sunrise Hwy,64,76.4,BUILT,2017,SF,,1240,New York,40.841211,-72.7342507,1.0,route,,Hamptons Ct Dr,Brookhaven,,US,Google Script,2017.0
0101000020E6100000177C9A93174152C060E811A3E7604440,Suffolk,Patchogue,APT,Cornerstone Waterfront,102 Mulford St. & West Ave.,50,2.0,PROP,2019,,,1947,New York,40.757069,-73.017064,1.0,street_address,102,Mulford St,Brookhaven,11954.0,US,Google Script,2019.0
0101000020E6100000E0D91EBDE13F52C0F9BA0CFFE9784440,Suffolk,Miller Place,APT,Echo Run,60 Echo Ave. & Sylvan Ave.,44,3.8,PROP,2018,,,1940,New York,40.944641,-72.998153,1.0,intersection,,Echo Ave,Miller Place,11764.0,US,TIGER/Line® dataset from the US Census Bureau,2018.0
0101000020E610000047E9D2BF244452C00A4B3CA06C784440,Suffolk,Mount Sinai,APT,Mount Sinai Meadows,200 Route 25A & Myrtle St.,140,21.8,PROP,2014,,,1942,New York,40.940815,-73.064743,0.8,intersection,,Myrtle Ave,Port Jefferson,11777.0,US,TIGER/Line® dataset from the US Census Bureau,2014.0
0101000020E61000005E10919A763C52C056478E7406664440,Suffolk,North Bellport,COND,Crest Town Center,Woodside Ave. & S. Village Dr.,210,25.0,PROP,2018,,,1945,New York,40.797072,-72.944739,0.87,intersection,,S Village Dr,Bellport,11713.0,US,TIGER/Line® dataset from the US Census Bureau,2018.0
0101000020E6100000DD3F16A2434452C0A8FDD64E94784440,Suffolk,Port Jefferson,APT,440 Main Street,440 Main St.,46,1.1,PROP,2018,,,1949,New York,40.942026,-73.06662800000001,1.0,range_interpolation,440,Main St,Port Jefferson,11777.0,US,TIGER/Line® dataset from the US Census Bureau,2018.0
0101000020E610000082E7DEC3253B52C0742497FF906A4440,Suffolk,Yaphank,APT,Lofts at the Boulevard,Yaphank Woods Blvd.,130,,PROP,2017,,,1955,New York,40.83255,-72.92418,1.0,place,,,Yaphank,11980.0,US,TIGER/Line® dataset from the US Census Bureau,2017.0
0101000020E6100000B9347EE1955A52C0255CC823B8714440,Suffolk,Halesite,APT,Creekside by the Harbor II,~18 Creek Rd.,14,1.0,PROP,2017,,,1967,New York,40.888432,-73.415398,0.9,place,,,Halesite,11743.0,US,TIGER/Line® dataset from the US Census Bureau,2017.0
0101000020E610000000C974E8F45952C0B3EBDE8AC4644440,Suffolk,Melville,APT,Melville Crossing,~2000 New Hwy.,56,3.4,PROP,2016,,,1972,New York,40.787248,-73.405573,1.0,place,,,Melville,11747.0,US,TIGER/Line® dataset from the US Census Bureau,2016.0
0101000020E610000021CD58349D4F52C05F0CE544BB5C4440,Suffolk,Bay Shore,APT,161 East Main Street,161 E. Main St.,20,0.8,PROP,2016,,,1973,New York,40.724465,-73.24396999999999,1.0,rooftop,161,E Main St,Bay Shore,11706.0,US,"NYS GIS Program Office, State Geographic Information Officer (GIO)",2016.0
0101000020E6100000F04C6892585052C0B66AD784B45C4440,Suffolk,Bay Shore,APT,Gramercy Bay,22 Oak St.,122,1.1,PROP,2017,,,1974,New York,40.724259,-73.25540600000001,1.0,rooftop,22,Oak St,Bay Shore,11706.0,US,"NYS GIS Program Office, State Geographic Information Officer (GIO)",2017.0
0101000020E61000000F2A711DE34F52C011AB3FC2305C4440,Suffolk,Bay Shore,APT,Maple Avenue Lofts,11 Maple Ave. & Gibson St.,90,1.7,PROP,2006,,,1975,New York,40.720238,-73.248237,0.89,intersection,,Gibson St,Bay Shore,11706.0,US,TIGER/Line® dataset from the US Census Bureau,2006.0
0101000020E610000088D51F61185052C08F39CFD8975C4440,Suffolk,Bay Shore,APT,North District Lofts,57 Park Ave.,90,1.6,PROP,2016,,,1976,New York,40.723384,-73.251488,1.0,rooftop,57,Park Ave,Bay Shore,11706.0,US,"NYS GIS Program Office, State Geographic Information Officer (GIO)",2016.0
0101000020E6100000CF85915ED44F52C0A9F57EA31D5D4440,Suffolk,Bay Shore,APT,Truman Cove Residence,59 2nd Ave.,36,1.2,PROP,2018,,,1978,New York,40.727467,-73.247337,1.0,rooftop,59,2nd Ave,Bay Shore,11706.0,US,"NYS GIS Program Office, State Geographic Information Officer (GIO)",2018.0
0101000020E6100000EAB0C22D1F5152C04EED0C535B644440,Suffolk,Brentwood,APT,Heartland Town Sqaure(Phase 1),Crooked Hill Rd.&Sagtikos Pkwy,3504,,PROP,2003,,,1984,New York,40.784037,-73.267528,1.0,street_center,,Crooked Hill Rd,Brentwood,11717.0,US,TIGER/Line® dataset from the US Census Bureau,2003.0
0101000020E6100000457F68E6C94C52C0EA5A7B9FAA684440,Suffolk,Hauppauge,APT,Sweetwater Estates,367 Lincoln Blvd. & Vets Hwy.,48,5.0,PROP,2014,,,1985,New York,40.817707,-73.199823,1.0,rooftop,367,Lincoln Blvd,Hauppauge,11788.0,US,"NYS GIS Program Office, State Geographic Information Officer (GIO)",2014.0
0101000020E6100000E2AE5E45464C52C07FDB1324B6674440,Suffolk,Hauppauge,APT,Windwatch Towers,~1785 Motor Parkway,150,5.3,PROP,2005,,,1986,New York,40.810246,-73.191789,1.0,place,,,Hauppauge,11760.0,US,TIGER/Line® dataset from the US Census Bureau,2005.0
0101000020E610000084BD8921394452C02D99637957634440,Suffolk,Holbrook,APT,Fairfield Broadway,757 Broadway Ave.,102,14.6,PROP,2009,,,1987,New York,40.776107,-73.06598699999999,1.0,rooftop,757,Broadway Ave,Holbrook,11741.0,US,"NYS GIS Program Office, State Geographic Information Officer (GIO)",2009.0
0101000020E61000002BBF0CC6884D52C070ECD97399604440,Suffolk,Islip,APT,Gracewood Estates,1520 Spur Drive S.,96,7.0,PROP,2017,,,1991,New York,40.754683,-73.211473,1.0,range_interpolation,1520,Spur Dr S,Islip,11751.0,US,TIGER/Line® dataset from the US Census Bureau,2017.0
0101000020E610000094A2957B814352C0E17F2BD9B1774440,Suffolk,Port Jefferson,APT,Upper Port,1605 Main St.,60,,PROP,2013,,,1948,New York,40.935115,-73.054778,1.0,rooftop,1605,Main St,Port Jefferson,11777.0,US,"NYS GIS Program Office, State Geographic Information Officer (GIO)",2013.0
0101000020E6100000FE43FAEDEB3052C093A9825149754440,Suffolk,Calverton,APT,Hamlet Centre,~4400 Middle Country Rd.,42,15.8,PROP,2013,,,1997,New York,40.9163,-72.7644,1.0,place,,,Calverton,11933.0,US,TIGER/Line® dataset from the US Census Bureau,2013.0
0101000020E61000000DA7CCCD376A52C0C8EE022505524440,Nassau,East Rockaway,COND,Marina Pointe,Atlantic Ave. & Ocean Ave.,84,2.7,UC,2016,,,94,New York,40.640782,-73.65965600000001,1.0,intersection,,Atlantic Ave,East Rockaway,11518.0,US,TIGER/Line® dataset from the US Census Bureau,2016.0
0101000020E6100000785E2A36E61952C0499C155113774440,Suffolk,North Sea,COND,---,1205 Majors Path,120,19.8,PROP,2019,,,2005,New York,40.930277000000004,-72.404676,1.0,rooftop,1205,Majors Path,Southampton,11968.0,US,"NYS GIS Program Office, State Geographic Information Officer (GIO)",2019.0
0101000020E61000005AD8D30E7F1652C081CB63CDC8744440,Suffolk,Water Mill,COND,Water Mill Village,794 Montauk Hwy.,38,6.6,PROP,2018,,,2010,New York,40.912378000000004,-72.351505,1.0,rooftop,794,Montauk Hwy,Watermill,11976.0,US,"NYS GIS Program Office, State Geographic Information Officer (GIO)",2018.0
0101000020E6100000102219726C2952C06FD8B628B3694440,Suffolk,Westhampton Beach,COND,---,55 Old Riverhead Rd.,11,1.8,PROP,2017,,,2011,New York,40.82578,-72.647244,1.0,rooftop,55,Old Riverhead Rd,Westhampton Beach,11978.0,US,"NYS GIS Program Office, State Geographic Information Officer (GIO)",2017.0
0101000020E6100000DC662AC4232A52C0D6C56D3480754440,Suffolk,Smithtown,APT,The Lofts at Maple and Main,102 W. Main St. & Maple Ave.,62,2.9,PROP,2012,,,2015,New York,40.917975,-72.658433,0.8,intersection,,E Main St,Riverhead,11901.0,US,TIGER/Line® dataset from the US Census Bureau,2012.0
0101000020E61000004A969350FA6A52C03FA88B14CA4A4440,Nassau,Long Beach,COND,The Meridian,260 W. Broadway,36,,BUILT,2007,,,635,New York,40.584292,-73.67152800000001,1.0,rooftop,260,W Broadway,Long Beach,11561.0,US,"NYS GIS Program Office, State Geographic Information Officer (GIO)",2007.0
0101000020E61000007009C03FA52152C01630815B777F4440,Suffolk,Ridge,APT,Brookwood at Ridge,Village Dr. & Rte. 25,220,29.4,BUILT,1983,,,1358,New York,40.99583,-72.525711,0.8,intersection,,State Rte 25,Mattituck,11952.0,US,TIGER/Line® dataset from the US Census Bureau,1983.0
0101000020E6100000F54718062C6E52C0F0694E5E646E4440,Nassau,Glen Cove,COND,---,Vanderbilt La. & Selina Ct.,40,,BUILT,1998,,,3,New York,40.862438,-73.721437,0.64,intersection,,Sloanes Beach Rd,Port Washington,11050.0,US,TIGER/Line® dataset from the US Census Bureau,1998.0
0101000020E61000002634492C296852C01381EA1F446E4440,Nassau,Glen Cove,COND,250 Glen Street,Hendrick Ave. & 250 Glen St.,20,,BUILT,1999,,,4,New York,40.861453999999995,-73.62751300000001,1.0,street_center,,Hendrick Ave,Glen Cove,11542.0,US,TIGER/Line® dataset from the US Census Bureau,1999.0
0101000020E6100000A67C08AA462A52C0931D1B8178754440,Suffolk,Riverhead,APT,at the Suffolk Theater,118 E. Main St.,28,0.4,PROP,2019,,,1998,New York,40.91774,-72.660563,1.0,rooftop,118,E Main St,Riverhead,11901.0,US,"NYS GIS Program Office, State Geographic Information Officer (GIO)",2019.0
0101000020E61000001B66683C112A52C05B0C1EA67D754440,Suffolk,Riverhead,APT,G2D Development,331 E. Main St.,36,0.4,PROP,2019,,,2000,New York,40.917896999999996,-72.657302,1.0,rooftop,331,E Main St,Riverhead,11901.0,US,"NYS GIS Program Office, State Geographic Information Officer (GIO)",2019.0
0101000020E61000003737A6272C2A52C0C53D963E74754440,Suffolk,Riverhead,APT,Metro Group Properties,203-213 E. Main St.,170,1.4,PROP,2017,,,2001,New York,40.917609999999996,-72.65894499999999,1.0,rooftop,213,E Main St,Riverhead,11901.0,US,"NYS GIS Program Office, State Geographic Information Officer (GIO)",2017.0
0101000020E610000012C0CDE2C52852C0102043C70E764440,Suffolk,Riverhead,APT,Premiant Development,~243 Railroad Ave.& Osborn Ave,153,2.1,PROP,2016,,,2002,New York,40.922326,-72.637078,1.0,place,,,Riverhead,11901.0,US,TIGER/Line® dataset from the US Census Bureau,2016.0
0101000020E6100000B7EEE6A90E1352C0996379573D804440,Suffolk,Sag Harbor,COND,Greystone Development,2 W. Water St.,13,1.9,PROP,2016,,,2006,New York,41.001872,-72.29777,1.0,rooftop,2,W Water St,Sag Harbor,11963.0,US,"NYS GIS Program Office, State Geographic Information Officer (GIO)",2016.0
0101000020E6100000ED2C7AA7026852C0556B6116DA714440,Nassau,Glen Cove,COND,Athem Ponds,Athem Dr. & Lattingtown Rd.,56,63.0,BUILT,1988,,,5,New York,40.889468,-73.625162,1.0,intersection,,Athem Dr,Glen Cove,11542.0,US,TIGER/Line® dataset from the US Census Bureau,1988.0
0101000020E6100000BA490C022B6852C0D44334BA836E4440,Nassau,Glen Cove,APT,Avalon at Glen Cove North,100 Glen St.,111,1.3,BUILT,2007,,,6,New York,40.863395000000004,-73.627625,1.0,rooftop,100,Glen St,Glen Cove,11542.0,US,"NYS GIS Program Office, State Geographic Information Officer (GIO)",2007.0
0101000020E6100000DD5F3DEE5B6852C0BEF8A23D5E6E4440,Nassau,Glen Cove,APT,Avalon at Glen Cove South,1100 Avalon Square,256,3.5,BUILT,2003,,,7,New York,40.862251,-73.630611,1.0,rooftop,1100,Avalon Sq,Glen Cove,11542.0,US,"NYS GIS Program Office, State Geographic Information Officer (GIO)",2003.0
0101000020E6100000F488D1730B6852C0A699EE7552714440,Nassau,Glen Cove,COND,Beechwood Estates,Beechwood Ct.,15,15.0,BUILT,1988,,,8,New York,40.885329,-73.625699,1.0,street_center,,Beechwood Ct,Glen Cove,11542.0,US,TIGER/Line® dataset from the US Census Bureau,1988.0
0101000020E610000072361D01DC6752C0A41AF67B626D4440,Nassau,Glen Cove,APT,Carney Street Apartments,200 Carney St.,48,,BUILT,2014,,,10,New York,40.854568,-73.622803,1.0,rooftop,200,Carney St,Glen Cove,11542.0,US,"NYS GIS Program Office, State Geographic Information Officer (GIO)",2014.0
0101000020E6100000B0AA5E7EA76952C084BD8921396F4440,Nassau,Glen Cove,COND,Cove Landing on the Sound,Waters Edge Rd.,41,22.0,BUILT,1984,,,11,New York,40.868930999999996,-73.650848,0.9,street_center,,Water's Edge,Glen Cove,11542.0,US,TIGER/Line® dataset from the US Census Bureau,1984.0
0101000020E610000056F5F23B4D6852C05C8DEC4ACB6E4440,Nassau,Glen Cove,COND,Highland Mews,Highland Mews,12,2.3,BUILT,1986,,,20,New York,40.865579,-73.629714,1.0,street_center,,Highland Mews,Glen Cove,11542.0,US,TIGER/Line® dataset from the US Census Bureau,1986.0
0101000020E6100000B80375CAA36652C06EF7729F1C6F4440,Nassau,Glen Cove,COND,Matinecock Farms,Matinecock Farms Rd.,37,,BUILT,1983,,,24,New York,40.868061,-73.603747,1.0,street_center,,Matinecock Farms Rd,Glen Cove,11542.0,US,TIGER/Line® dataset from the US Census Bureau,1983.0
0101000020E6100000679B1BD3136F52C0F0FD0DDAAB4B4440,Nassau,Atlantic Beach,COND,Oceanview Condominiums,116-164 Albany Blvd.,30,,BUILT,1979,,,31,New York,40.591182,-73.735585,1.0,rooftop,164,Albany Blvd,Atlantic Beach,11509.0,US,"NYS GIS Program Office, State Geographic Information Officer (GIO)",1979.0
0101000020E6100000647616BD536E52C0056F48A3024B4440,Nassau,Atlantic Beach,COND,Pebble Cove,1601-1695 Ocean Blvd.,48,12.0,BUILT,1983,,,32,New York,40.586018,-73.723861,1.0,rooftop,1695,Ocean Blvd,Atlantic Beach,11509.0,US,"NYS GIS Program Office, State Geographic Information Officer (GIO)",1983.0
0101000020E61000001C7C6132556752C05801BEDBBC534440,Nassau,Baldwin,COOP,Baldwin Estates,2355 Pershing Blvd. & Haig St.,70,3.5,BUILT,1986,,,36,New York,40.654201,-73.614575,0.95,intersection,,Haig St,Baldwin,11510.0,US,TIGER/Line® dataset from the US Census Bureau,1986.0
0101000020E6100000FD851E317A6652C0B7EEE6A90E574440,Nassau,Baldwin,COND,Woodland Estates,Woodland Estates Dr.& Clyde Rd,62,,BUILT,1992,,,48,New York,40.680135,-73.601208,1.0,street_center,,Woodland Estates Dr,Baldwin,11510.0,US,TIGER/Line® dataset from the US Census Bureau,1992.0
0101000020E610000008043A93366752C0B08D78B29B514440,Nassau,Baldwin Harbor,COND,Barclay Condominiums,2891-2933 Grand Ave.,23,1.4,BUILT,1983,,,49,New York,40.637564000000005,-73.612706,1.0,rooftop,2933,Grand Ave,Baldwin,11510.0,US,"NYS GIS Program Office, State Geographic Information Officer (GIO)",1983.0
0101000020E6100000CAC2D7D7BA7752C0BDAAB35A60534440,Nassau,Barnum Island,COND,Island Bay Townhouses & Marina,(end of) Jamaica Ave.,20,2.1,BUILT,2008,,,51,New York,40.651378,-73.870779,1.0,place,,,Jamaica,11405.0,US,TIGER/Line® dataset from the US Census Bureau,2008.0
0101000020E61000009D2FF65E7C6252C04ED53DB2B9544440,Nassau,Bellmore,COND,Bainbridge,2410 Farmers Ave.,20,1.0,BUILT,1982,,,53,New York,40.661916999999995,-73.538841,1.0,rooftop,2410,Farmers Ave,Bellmore,11710.0,US,"NYS GIS Program Office, State Geographic Information Officer (GIO)",1982.0
0101000020E610000022895E46B16152C0B9A7AB3B16554440,Nassau,Bellmore,COND,Bedford Square Condominium,2370-2394 Bedford Ave.,25,,BUILT,1977,,,54,New York,40.664741,-73.526445,1.0,rooftop,2394,Bedford Ave,Bellmore,11710.0,US,"NYS GIS Program Office, State Geographic Information Officer (GIO)",1977.0
0101000020E6100000BBB54C86E36152C022A81ABD1A564440,Nassau,Bellmore,COND,Plaza Oaks,516 Bedford Ave.,18,,BUILT,1982,,,56,New York,40.672691,-73.529512,1.0,rooftop,516,Bedford Ave,Bellmore,11710.0,US,"NYS GIS Program Office, State Geographic Information Officer (GIO)",1982.0
0101000020E61000003944DC9C4A6152C0ED2DE57CB1554440,Nassau,Bellmore,COND,Twinview Gardens,2050-2070 Lakeview Rd.,21,,BUILT,1981,,,57,New York,40.669478999999995,-73.520179,1.0,rooftop,2050,Lakeview Rd,Bellmore,11710.0,US,"NYS GIS Program Office, State Geographic Information Officer (GIO)",1981.0
0101000020E6100000A20DC006446E52C0E92ADD5D674F4440,Nassau,Cedarhurst,COND,Barclay Townhouses,55 Cedarhurst Ave.,11,2.9,BUILT,1983,,,58,New York,40.620342,-73.722902,1.0,rooftop,55,Cedarhurst Ave,Cedarhurst,11516.0,US,"NYS GIS Program Office, State Geographic Information Officer (GIO)",1983.0
0101000020E61000001E87C1FC156E52C00C056C0723504440,Nassau,Cedarhurst,COND,Cedarhurst House,627-683 Chestnut St.,54,1.5,BUILT,1975 E,,,61,New York,40.626069,-73.72009200000001,1.0,rooftop,683,Chestnut St,Cedarhurst,11516.0,US,"NYS GIS Program Office, State Geographic Information Officer (GIO)",1975.0
0101000020E61000005260014C196F52C01BBCAFCA85504440,Nassau,Cedarhurst,COOP,Chatham Square Estates,322-334 Peninsula Blvd.,14,0.9,BUILT,1987,,,63,New York,40.629083,-73.735919,1.0,rooftop,334,Peninsula Blvd,Cedarhurst,11516.0,US,"NYS GIS Program Office, State Geographic Information Officer (GIO)",1987.0
0101000020E6100000D520CCED5E6252C017618A72695A4440,Nassau,East Meadow,APT,---,680 Evelyn Ave.,10,0.4,BUILT,1979,,,74,New York,40.706343,-73.537044,1.0,rooftop,680,Evelyn Ave,East Meadow,11554.0,US,"NYS GIS Program Office, State Geographic Information Officer (GIO)",1979.0
0101000020E61000009B374E0AF36252C0D8BCAAB35A5A4440,Nassau,East Meadow,COOP,Meadowlane Estates,650 Newbridge Rd.,87,,BUILT,1982,,,79,New York,40.705892999999996,-73.546084,1.0,rooftop,650,Newbridge Rd,East Meadow,11554.0,US,"NYS GIS Program Office, State Geographic Information Officer (GIO)",1982.0
0101000020E610000076DEC666476452C04451A04FE45B4440,Nassau,East Meadow,COND,The Meadows,1790 Front St.,41,,BUILT,1986,,,85,New York,40.717905,-73.566858,1.0,rooftop,1790,Front St,East Meadow,11554.0,US,"NYS GIS Program Office, State Geographic Information Officer (GIO)",1986.0
0101000020E61000003A799109F86C52C051A2258FA7594440,Nassau,Elmont,COND,Carriage Townhomes,1601 Johnson Ave.,12,,BUILT,1997,,,97,New York,40.700426,-73.702639,1.0,rooftop,1601,Johnson Ave,Elmont,11003.0,US,"NYS GIS Program Office, State Geographic Information Officer (GIO)",1997.0
0101000020E61000008F8AFF3BA26B52C09CC0745AB7594440,Nassau,Franklin Square,COOP,Fernwood,280 Franklin Ave.,28,2.0,BUILT,1986,,,111,New York,40.700908,-73.681777,1.0,rooftop,280,Franklin Ave,Franklin Square,11010.0,US,"NYS GIS Program Office, State Geographic Information Officer (GIO)",1986.0
0101000020E6100000DB8827BB996852C0F05014E8135D4440,Nassau,Franklin Square,COND,The Haven,815 Franklin Ave.,19,2.0,BUILT,1988,,,113,New York,40.72717,-73.634383,0.9,rooftop,815,Franklin Ave,Garden City,11530.0,US,"NYS GIS Program Office, State Geographic Information Officer (GIO)",1988.0
0101000020E61000004293C492726552C00D8AE6012C544440,Nassau,Freeport,APT,---,30 Brooklyn Ave.,14,0.3,BUILT,1973,,,118,New York,40.657593,-73.58511800000001,1.0,rooftop,30,Brooklyn Ave,Freeport,11520.0,US,"NYS GIS Program Office, State Geographic Information Officer (GIO)",1973.0
0101000020E61000001D59F965306552C0020F0C207C544440,Nassau,Freeport,APT,---,40 Graffing Pl.,20,0.6,BUILT,1974,,,122,New York,40.660038,-73.581079,1.0,rooftop,40,Graffing Pl,Freeport,11520.0,US,"NYS GIS Program Office, State Geographic Information Officer (GIO)",1974.0
0101000020E610000011DF89592F3752C0B4024356B7624440,Suffolk,Shirley,COND,Manors at the Colony Preserve,333 William Floyd Parkway,150,205.6,UC,2017,SRCIT,,1371,New York,40.77122,-72.86226500000001,1.0,rooftop,333,William Floyd Parkway Northbound,Shirley,11967.0,US,"NYS GIS Program Office, State Geographic Information Officer (GIO)",2017.0
0101000020E6100000CAF962EFC56552C0F38DE89E75534440,Nassau,Freeport,APT,---,231 W. Merrick Rd.,34,0.6,BUILT,1974,,,125,New York,40.652027000000004,-73.59020600000001,1.0,rooftop,231,W Merrick Rd,Freeport,11520.0,US,"NYS GIS Program Office, State Geographic Information Officer (GIO)",1974.0
0101000020E610000035D3BD4EEA6552C0E78EFE976B534440,Nassau,Freeport,APT,---,287 W. Merrick Rd.,40,1.0,BUILT,1974,,,126,New York,40.651721,-73.592426,1.0,rooftop,287,W Merrick Rd,Freeport,11520.0,US,"NYS GIS Program Office, State Geographic Information Officer (GIO)",1974.0
0101000020E61000000708E6E8F16552C02A1A6B7F67534440,Nassau,Freeport,APT,---,295 W. Merrick Rd.,62,,BUILT,1974,,,127,New York,40.651596000000005,-73.59289,1.0,rooftop,295,W Merrick Rd,Freeport,11520.0,US,"NYS GIS Program Office, State Geographic Information Officer (GIO)",1974.0
0101000020E6100000B16CE690D46452C0ED9925016A504440,Nassau,Freeport,COOP,Anchorage at Freeport,Anchorage Way,160,,BUILT,1984,,,128,New York,40.628235,-73.575474,1.0,street_center,,Anchorage Way,Freeport,11520.0,US,TIGER/Line® dataset from the US Census Bureau,1984.0
0101000020E6100000C32D1F49496652C00DA837A3E6514440,Nassau,Freeport,COOP,Anchors Edge,23-47 Anchor St.,48,,BUILT,1987,,,129,New York,40.639851,-73.598223,1.0,rooftop,47,Anchor St,Freeport,11520.0,US,"NYS GIS Program Office, State Geographic Information Officer (GIO)",1987.0
0101000020E6100000D2393FC5714252C0596DFE5F75744440,Suffolk,Terryville,APT,Vistas of Port Jefferson,588 N. Bicycle Path,244,27.3,UC,2018,SRCIT,,1378,New York,40.909832,-73.03819399999999,0.8,range_interpolation,588,Bicycle Path,Port Jefferson Station,11776.0,US,TIGER/Line® dataset from the US Census Bureau,2018.0
0101000020E6100000EE7C3F355E6552C0685DA3E540534440,Nassau,Freeport,APT,Grove Gardens,180 Guy Lombardo Ave.,22,0.7,BUILT,1974,,,142,New York,40.650418,-73.583875,1.0,rooftop,180,Guy Lombardo Ave,Freeport,11520.0,US,"NYS GIS Program Office, State Geographic Information Officer (GIO)",1974.0
0101000020E61000005DE0F258336652C0CD94D6DF12524440,Nassau,Freeport,COND,Kristi Rose Gardens,10 Anchor St.,14,,BUILT,2017,,,150,New York,40.641201,-73.596884,1.0,rooftop,10,Anchor St,Freeport,11520.0,US,"NYS GIS Program Office, State Geographic Information Officer (GIO)",2017.0
0101000020E6100000C53D963E746552C0AB06616EF7524440,Nassau,Freeport,COND,Mews at Copper Beech,267 S. Ocean Ave.,16,2.0,BUILT,2006,,,154,New York,40.648176,-73.58521999999999,1.0,range_interpolation,267,S Ocean Ave,Freeport,11520.0,US,TIGER/Line® dataset from the US Census Bureau,2006.0
0101000020E610000073A0E293A93952C0DA95F14AED6C4440,Suffolk,Yaphank,COND,Country Pointe Meadows (part),Yaphank Woods Blvd&Boulevard W,225,,UC,2017,SRCIT,,1382,New York,40.8509916,-72.9009752,1.0,route,,Yaphank Woods Blvd,Brookhaven,,US,Google Script,2017.0
0101000020E6100000D3A0681EC06552C000E5EFDE51554440,Nassau,Freeport,COND,Ocean Watch at Harbor Pointe,Ocean Watch Ct.,61,,BUILT,"2008, 2015",,,158,New York,40.666561,-73.589851,1.0,street_center,,Ocean Ct,Freeport,11520.0,US,TIGER/Line® dataset from the US Census Bureau,2008.0
0101000020E610000073A0E293A93952C0DA95F14AED6C4440,Suffolk,Yaphank,COND,Country Pointe Meadows (part),Yaphank Woods Blvd&Boulevard W,30,,UC,2017,SRCIT-AFFORD,,1383,New York,40.8509916,-72.9009752,1.0,route,,Yaphank Woods Blvd,Brookhaven,,US,Google Script,2017.0
0101000020E61000009D11A5BDC16552C08657923CD7534440,Nassau,Freeport,APT,Pine Gardens,178 Pine St.,24,0.4,BUILT,1973,,,162,New York,40.655006,-73.58995,1.0,rooftop,178,Pine St,Freeport,11520.0,US,"NYS GIS Program Office, State Geographic Information Officer (GIO)",1973.0
0101000020E6100000A69BC420B06552C0F3E32F2DEA514440,Nassau,Freeport,COND,South Bay,31 Casino St.,61,1.0,BUILT,1978,,,171,New York,40.639959000000005,-73.588875,1.0,rooftop,31,Casino St,Freeport,11520.0,US,"NYS GIS Program Office, State Geographic Information Officer (GIO)",1978.0
0101000020E61000001E15FF77446552C03604C765DC504440,Nassau,Freeport,COOP,South Ocean Court,825 S. Ocean Ave.,20,0.9,BUILT,1986,,,173,New York,40.631726,-73.58230400000001,1.0,rooftop,825,S Ocean Ave,Freeport,11520.0,US,"NYS GIS Program Office, State Geographic Information Officer (GIO)",1986.0
0101000020E610000042B115342D6652C01CEBE2361A524440,Nassau,Freeport,COOP,Waters Edge,116 Westend Ave.,40,,BUILT,1986,,,188,New York,40.641425,-73.596509,1.0,range_interpolation,116,Westend Ave,Freeport,11520.0,US,TIGER/Line® dataset from the US Census Bureau,1986.0
0101000020E61000009F573CF5486552C04A404CC285504440,Nassau,Freeport,COND,Wharfside,725 Miller Ave.,152,4.0,BUILT,1985,,,190,New York,40.629082000000004,-73.582578,1.0,rooftop,725,Miller Ave,Freeport,11520.0,US,"NYS GIS Program Office, State Geographic Information Officer (GIO)",1985.0
0101000020E6100000A3E9EC64706852C0E14389963C5C4440,Nassau,Garden City,COND,Doubleday Court,301 Franklin Ave.,54,,BUILT,2015,,,196,New York,40.720599,-73.63186,1.0,rooftop,301,Franklin Ave,Garden City,11530.0,US,"NYS GIS Program Office, State Geographic Information Officer (GIO)",2015.0
0101000020E6100000A0185932C76852C0342E1C08C95C4440,Nassau,Garden City,COND,Plaza 7 Condominium,99 7th St.,22,0.6,BUILT,1973,,,202,New York,40.724885,-73.637158,1.0,rooftop,99,7th St,Garden City,11530.0,US,"NYS GIS Program Office, State Geographic Information Officer (GIO)",1973.0
0101000020E610000003CDE7DCED6852C03E22A644125D4440,Nassau,Garden City,COND,"Wyndham at Garden City, East & West",100 Hilton Ave. & 9th St.,316,12.5,BUILT,1988,,,206,New York,40.72712,-73.63951800000001,0.83,intersection,,9th St,Garden City,11530.0,US,TIGER/Line® dataset from the US Census Bureau,1988.0
0101000020E61000001F317A6EA16652C05F46B1DCD25A4440,Nassau,Hempstead,APT,---,757-775 Front St.,12,0.5,BUILT,1971,,,207,New York,40.709559999999996,-73.603603,1.0,rooftop,775,Front St,Hempstead,11550.0,US,"NYS GIS Program Office, State Geographic Information Officer (GIO)",1971.0
0101000020E6100000F1129CFA406752C07BBDFBE3BD5A4440,Nassau,Hempstead,APT,---,55 Nassau Pl.,14,0.8,BUILT,1977,,,216,New York,40.70892,-73.613341,1.0,rooftop,55,Nassau Pl,Hempstead,11550.0,US,"NYS GIS Program Office, State Geographic Information Officer (GIO)",1977.0
0101000020E6100000C328081EDF6752C0E7FC14C7815B4440,Nassau,Hempstead,APT,---,43 Burr Ave.,14,0.4,BUILT,1972,,,217,New York,40.714898,-73.62299300000001,1.0,rooftop,43,Burr Ave,Hempstead,11550.0,US,"NYS GIS Program Office, State Geographic Information Officer (GIO)",1972.0
0101000020E6100000228AC91B606852C00B444FCAA45A4440,Nassau,Hempstead,APT,0,30 Hilton Ave.,17,0.5,BUILT,1977,,,224,New York,40.708154,-73.630866,1.0,rooftop,30,Hilton Ave,Hempstead,11550.0,US,"NYS GIS Program Office, State Geographic Information Officer (GIO)",1977.0
0101000020E6100000C284D1AC6C6752C0971DE21FB65A4440,Nassau,Hempstead,APT,---,27 Attorney St.,20,0.7,BUILT,1972,,,225,New York,40.708683,-73.616008,1.0,rooftop,27,Attorney St,Hempstead,11550.0,US,"NYS GIS Program Office, State Geographic Information Officer (GIO)",1972.0
0101000020E610000034812216316852C02E8CF4A276594440,Nassau,Hempstead,APT,---,"90 Maple, 43 Evans & 30 Linden",30,1.1,BUILT,1981 E,,,228,New York,40.698933000000004,-73.627996,1.0,rooftop,90,Maple Ave,Hempstead,11550.0,US,"NYS GIS Program Office, State Geographic Information Officer (GIO)",1981.0
0101000020E6100000B96FB54E5C6852C0DCA16131EA5A4440,Nassau,Hempstead,APT,---,77 Terrace Ave.,32,0.6,BUILT,1973,,,229,New York,40.710271999999996,-73.630634,1.0,rooftop,77,Terrace Ave,Hempstead,11550.0,US,"NYS GIS Program Office, State Geographic Information Officer (GIO)",1973.0
0101000020E6100000B114C957026752C043E6CAA0DA5A4440,Nassau,Hempstead,APT,---,60 Hendrickson Ave.,34,0.9,BUILT,1972,,,230,New York,40.709796999999995,-73.60951800000001,1.0,rooftop,60,Hendrickson Ave,Hempstead,11550.0,US,"NYS GIS Program Office, State Geographic Information Officer (GIO)",1972.0
0101000020E6100000EBC37AA3565552C061A8C30AB76C4440,Suffolk,Elwood,COND,Seasons at Elwood,544 Elwood Rd.,256,36.8,UC,2017,SRCIT,,1449,New York,40.849336,-73.33341300000001,1.0,rooftop,544,Elwood Rd,East Northport,11731.0,US,"NYS GIS Program Office, State Geographic Information Officer (GIO)",2017.0
0101000020E61000008E1F2A8D986852C09B1F7F69515B4440,Nassau,Hempstead,COND,Atrium Plaza,200 Hilton Ave.,68,1.5,BUILT,1980,,,241,New York,40.713421999999994,-73.634311,1.0,range_interpolation,200,Hilton Ave,Hempstead,11550.0,US,TIGER/Line® dataset from the US Census Bureau,1980.0
0101000020E6100000265305A3926752C0BB473657CD594440,Nassau,Hempstead,COND,Devon at Greenwich,148 Greenwich St.,40,,BUILT,2008,,,256,New York,40.701578999999995,-73.618325,1.0,rooftop,148,Greenwich St,Hempstead,11550.0,US,"NYS GIS Program Office, State Geographic Information Officer (GIO)",2008.0
0101000020E6100000E76D6C76A46752C0D4F20357795A4440,Nassau,Hempstead,APT,House Beautiful Apts.,380 Front St.,121,1.4,BUILT,1973 E,,,269,New York,40.706828,-73.619413,1.0,rooftop,380,Front St,Hempstead,11550.0,US,"NYS GIS Program Office, State Geographic Information Officer (GIO)",1973.0
0101000020E6100000DD28B2D6506752C03D0CAD4ECE584440,Nassau,Hempstead,APT,Jeffrey Apts.,270 Baldwin Rd.,15,0.4,BUILT,1973 E,,,271,New York,40.693796,-73.61430899999999,1.0,rooftop,270,Baldwin Rd,Hempstead,11550.0,US,"NYS GIS Program Office, State Geographic Information Officer (GIO)",1973.0
0101000020E6100000D68EE21C755A52C09A94826E2F6D4440,Suffolk,Huntington Station,APT,Columbia Terrace,215 Lowndes Ave. & Columbia St,14,0.9,UC,2019,AFFORD,,1475,New York,40.85301,-73.413398,0.97,intersection,,Columbia St,Huntington Station,11746.0,US,TIGER/Line® dataset from the US Census Bureau,2019.0
0101000020E6100000D177B7B2446852C09BA9108FC45B4440,Nassau,Hempstead,APT,Metro 303,303 Main St.,166,1.8,BUILT,2012,,,276,New York,40.716936,-73.629193,1.0,rooftop,303,Main St,Hempstead,11550.0,US,"NYS GIS Program Office, State Geographic Information Officer (GIO)",2012.0
0101000020E61000006902452C626752C0043C69E1B25A4440,Nassau,Hempstead,APT,Village Lofts,479 Front St.,29,,BUILT,2014,,,298,New York,40.708584,-73.615367,1.0,rooftop,479,Front St,Hempstead,11550.0,US,"NYS GIS Program Office, State Geographic Information Officer (GIO)",2014.0
0101000020E610000029ECA2E8816C52C045662E7079524440,Nassau,Hewlett,COND,Jonathan Hall,1534 Broadway,36,2.3,BUILT,1973,,,314,New York,40.644331,-73.695429,1.0,rooftop,1534,Broadway,Hewlett,11557.0,US,"NYS GIS Program Office, State Geographic Information Officer (GIO)",1973.0
0101000020E6100000E3E0D231E76C52C046EF54C03D514440,Nassau,Hewlett,COND,The Gables,1180 E. Broadway,12,,BUILT,1989,,,316,New York,40.634696999999996,-73.701611,1.0,rooftop,1180,E Broadway,Hewlett,11557.0,US,"NYS GIS Program Office, State Geographic Information Officer (GIO)",1989.0
0101000020E61000004FC939B1876F52C000E5EFDE514F4440,Nassau,Inwood,COOP,Franton Townhouses,29-41 Provenzano St.,15,,BUILT,1985,,,319,New York,40.619686,-73.742657,1.0,rooftop,41,Provenzano St,Inwood,11096.0,US,"NYS GIS Program Office, State Geographic Information Officer (GIO)",1985.0
0101000020E61000007EFE7BF0DA6E52C0BFB67EFACF4E4440,Nassau,Lawrence,COND,Lawrence Mews,269 Central Ave.,10,0.5,BUILT,1975 E,,,331,New York,40.615722,-73.732113,1.0,rooftop,269,Central Ave,Lawrence,11559.0,US,"NYS GIS Program Office, State Geographic Information Officer (GIO)",1975.0
0101000020E61000000EDDEC0F946E52C006854199464F4440,Nassau,Lawrence,COND,The Carlyle,376 Central Ave.,71,,BUILT,1983,,,336,New York,40.619341999999996,-73.727787,1.0,rooftop,376,Central Ave,Lawrence,11559.0,US,"NYS GIS Program Office, State Geographic Information Officer (GIO)",1983.0
0101000020E610000091F12895F06E52C094A46B26DF4E4440,Nassau,Lawrence,COND,The Regency,260 Central Ave.,138,4.0,BUILT,2015,,,340,New York,40.616184999999994,-73.733434,1.0,rooftop,260,Central Ave,Lawrence,11559.0,US,"NYS GIS Program Office, State Geographic Information Officer (GIO)",2015.0
0101000020E6100000A2D0B2EE1F6152C0C405A051BA5C4440,Nassau,Levittown,APT,Brixton Lane,3174-3181 Brixton La.,28,2.0,BUILT,<1970,,,343,New York,40.724436,-73.517574,1.0,rooftop,3181,Brixton Ln,Levittown,11756.0,US,"NYS GIS Program Office, State Geographic Information Officer (GIO)",1970.0
0101000020E61000004757E9EE3A6052C01686C8E9EB5B4440,Nassau,Levittown,APT,Cambridge Village,43-87 Old Oak La. & Acorn La.,82,4.0,BUILT,<1970,,,344,New York,40.718137,-73.503597,0.93,intersection,,Acorn Ln,Levittown,11756.0,US,TIGER/Line® dataset from the US Census Bureau,1970.0
0101000020E61000002121CA17B46152C0D9960167295D4440,Nassau,Levittown,APT,Levittown Gardens,100-112 Division Ave.,50,2.4,BUILT,<1970,,,346,New York,40.727826,-73.526617,1.0,rooftop,112,Division Ave,Levittown,11756.0,US,"NYS GIS Program Office, State Geographic Information Officer (GIO)",1970.0
0101000020E6100000F52EDE8FDB6952C0B43C0FEECE504440,Nassau,Oceanside,APT,Ocean Crest Apts.,3231-3251 Royal Ave.,24,,BUILT,<1970,,,399,New York,40.631315,-73.654026,1.0,rooftop,3251,Royal Ave,Oceanside,11572.0,US,"NYS GIS Program Office, State Geographic Information Officer (GIO)",1970.0
0101000020E6100000C861307F855F52C0871A8524B35C4440,Nassau,Levittown,APT,Yorkshire Village,34-48 Longfellow Ave.,40,2.3,BUILT,1975 E,,,350,New York,40.724216999999996,-73.49252299999999,1.0,rooftop,48,Longfellow Ave,Levittown,11756.0,US,"NYS GIS Program Office, State Geographic Information Officer (GIO)",1975.0
0101000020E610000079944A78426B52C0EB1ED95C35534440,Nassau,Lynbrook,APT,---,151 Union Ave.,50,1.1,BUILT,1970,,,356,New York,40.650065999999995,-73.67593199999999,1.0,rooftop,151,Union Ave,Lynbrook,11563.0,US,"NYS GIS Program Office, State Geographic Information Officer (GIO)",1970.0
0101000020E6100000EFC8586DFE6A52C0B2BAD573D2534440,Nassau,Lynbrook,COND,Coachlight Square Condominium,114 Atlantic Ave & Sunrise Hwy,89,,BUILT,1996,,,360,New York,40.65486,-73.671779,0.8,intersection,,Atlantic Ave,Lynbrook,11563.0,US,TIGER/Line® dataset from the US Census Bureau,1996.0
0101000020E6100000DEE522BE135052C02E043928615C4440,Suffolk,Bay Shore,APT,Bay Park,28-34 Park Ave.,75,1.2,UC,2019,SRCIT-AFFORD,,1528,New York,40.721715,-73.251205,1.0,rooftop,34,Park Ave,Bay Shore,11706.0,US,"NYS GIS Program Office, State Geographic Information Officer (GIO)",2019.0
0101000020E61000000B9C6C03776852C08481E7DEC3534440,Nassau,Oceanside,APT,South Nassau Hospital,565 Merrick Rd.,22,,BUILT,2006,,,393,New York,40.654415,-73.632264,0.9,rooftop,565,Merrick Rd,Rockville Centre,11570.0,US,"NYS GIS Program Office, State Geographic Information Officer (GIO)",2006.0
0101000020E610000032B08EE3876352C07D76C075C5544440,Nassau,Merrick,COOP,Merrick Manor,1930 Sunrise Hwy.,41,,BUILT,1987,,,376,New York,40.662276,-73.55516899999999,1.0,range_interpolation,1930,Sunrise Hwy,Merrick,11566.0,US,TIGER/Line® dataset from the US Census Bureau,1987.0
0101000020E610000003B2D7BB3F6252C029232E008D584440,Nassau,North Bellmore,APT,Manor Gardens,2619 Jerusalem Ave.,24,,BUILT,1973 E,,,378,New York,40.691803,-73.53514,1.0,rooftop,2619,Jerusalem Ave,Bellmore,11710.0,US,"NYS GIS Program Office, State Geographic Information Officer (GIO)",1973.0
0101000020E610000063B66455846252C03B71395E81584440,Nassau,North Bellmore,APT,North Bellmore Garden Apts.,2511 Jerusalem Ave.,14,,BUILT,1972,,,379,New York,40.691448,-73.539327,1.0,rooftop,2511,Jerusalem Ave,Bellmore,11710.0,US,"NYS GIS Program Office, State Geographic Information Officer (GIO)",1972.0
0101000020E61000003602F1BA7E6452C02D99637957574440,Nassau,North Merrick,COOP,Barclay Townhouses Phase 1,William St.,10,,BUILT,1988,,,381,New York,40.682357,-73.570235,1.0,street_center,,William St,Merrick,11566.0,US,TIGER/Line® dataset from the US Census Bureau,1988.0
0101000020E61000001D93C5FD476452C049809A5AB6584440,Nassau,North Merrick,COOP,Barclay Townhouses Phase 2,1425 Jerusalem Ave.,37,,BUILT,1988,,,382,New York,40.693065000000004,-73.56689399999999,1.0,rooftop,1425,Jerusalem Ave,Merrick,11566.0,US,"NYS GIS Program Office, State Geographic Information Officer (GIO)",1988.0
0101000020E6100000C713419C876D52C08C4B55DAE2564440,Nassau,North Valley Stream,COND,Cameo Townhouses,1595 N. Central Ave.,52,3.2,BUILT,1983,,,384,New York,40.678798,-73.711402,1.0,rooftop,1595,N Central Ave,Valley Stream,11580.0,US,"NYS GIS Program Office, State Geographic Information Officer (GIO)",1983.0
0101000020E61000005073F222136152C0390F27309D584440,Nassau,North Wantagh,COND,Stanford Court,Stanford Ct. & Jerusalem Ave.,84,7.0,BUILT,1985,,,390,New York,40.692296999999996,-73.516793,0.95,intersection,,Jerusalem Ave,Wantagh,11793.0,US,TIGER/Line® dataset from the US Census Bureau,1985.0
0101000020E61000001FD8F15F206052C012F5824F735A4440,Nassau,North Wantagh,COND,Wantagh Oaks,689-729 Wantagh Ave.,20,,BUILT,1984,,,391,New York,40.706644,-73.501976,1.0,rooftop,689,Wantagh Ave,Wantagh,11793.0,US,"NYS GIS Program Office, State Geographic Information Officer (GIO)",1984.0
0101000020E6100000EA40D653AB6052C0E1B54B1B0E554440,Nassau,North Wantagh,COND,Willow Wood,Willow Wood La.& Jerusalem Av.,185,,BUILT,1985,,,392,New York,40.664493,-73.51045699999999,1.0,street_center,,Willow St,Wantagh,11793.0,US,TIGER/Line® dataset from the US Census Bureau,1985.0
0101000020E610000032E9EFA5F06852C05BED612F14504440,Nassau,Oceanside,COND,Alhambra Condominium,Alhambra Dr. & Long Beach Rd.,108,,BUILT,1974,,,394,New York,40.625616,-73.639688,1.0,intersection,,Alhambra Dr,Oceanside,11572.0,US,TIGER/Line® dataset from the US Census Bureau,1974.0
0101000020E610000044183F8D7B6852C0902E36AD14524440,Nassau,Oceanside,COND,Brower Oakview Condominium,203 Oakview Ave. & Brower Ave.,42,0.4,BUILT,1984,,,396,New York,40.641256,-73.632541,0.96,intersection,,Brower Ave,Oceanside,11572.0,US,TIGER/Line® dataset from the US Census Bureau,1984.0
0101000020E6100000EE76BD34456952C01C0A9FAD834F4440,Nassau,Oceanside,COOP,Oceanside Cove (part),100 Daly Blvd. & Cove Dr.,378,48.0,BUILT,1986,,,402,New York,40.621206,-73.644849,1.0,rooftop,100,Daly Blvd,Oceanside,11572.0,US,"NYS GIS Program Office, State Geographic Information Officer (GIO)",1986.0
0101000020E61000008A7269FCC26852C0338B506C05534440,Nassau,Oceanside,COND,The Glen,15 Franklin Pl.& Long Beach Rd,23,0.9,BUILT,1985,,,406,New York,40.648603,-73.636901,1.0,rooftop,15,Franklin Pl,Oceanside,11572.0,US,"NYS GIS Program Office, State Geographic Information Officer (GIO)",1985.0
0101000020E610000052BAF42F496952C049DA8D3EE6514440,Nassau,Oceanside,COND,Villas at Oceanside,140 Atlantic Ave.,25,,BUILT,1992,,,409,New York,40.639839,-73.645092,1.0,rooftop,140,Atlantic Ave,Oceanside,11572.0,US,"NYS GIS Program Office, State Geographic Information Officer (GIO)",1992.0
0101000020E61000007F30F0DC7B6852C0EB573A1F9E4F4440,Nassau,Oceanside,COND,Villas at Oceanside,Wexford La.,68,,BUILT,2008,,,410,New York,40.622013,-73.63256,1.0,street_center,,Wexford Ln,Oceanside,11572.0,US,TIGER/Line® dataset from the US Census Bureau,2008.0
0101000020E61000001211FE45D06852C0A2F14410E7534440,Nassau,Rockville Centre,APT,---,1 N. Forest Ave.,12,0.2,BUILT,1973 E,,,412,New York,40.655489,-73.637712,1.0,rooftop,1,N Forest Ave,Rockville Centre,11570.0,US,"NYS GIS Program Office, State Geographic Information Officer (GIO)",1973.0
0101000020E610000010768A55836852C01763601DC7534440,Nassau,Rockville Centre,APT,---,555 Merrick Rd.,32,0.5,BUILT,1973 E,,,418,New York,40.654514,-73.633016,1.0,rooftop,555,Merrick Rd,Rockville Centre,11570.0,US,"NYS GIS Program Office, State Geographic Information Officer (GIO)",1973.0
0101000020E6100000DF8C9AAF926952C0CDE847C329554440,Nassau,Rockville Centre,APT,---,195 N. Centre Ave. & 70 Maine,36,0.9,BUILT,1985,,,420,New York,40.665337,-73.649578,1.0,rooftop,195,N Centre Ave,Rockville Centre,11570.0,US,"NYS GIS Program Office, State Geographic Information Officer (GIO)",1985.0
0101000020E6100000A88AA9F4136952C09B560A815C544440,Nassau,Rockville Centre,COND,Berkshire at Maple Avenue,77 Maple Ave.,24,1.4,BUILT,2006,,,428,New York,40.659073,-73.64184300000001,1.0,rooftop,77,Maple Ave,Rockville Centre,11570.0,US,"NYS GIS Program Office, State Geographic Information Officer (GIO)",2006.0
0101000020E610000070438CD7BC6952C04DF910548D544440,Nassau,Rockville Centre,APT,Signature Place,80-100 Banks Ave.,349,7.2,BUILT,2012,,,454,New York,40.660563,-73.652151,1.0,rooftop,100,Banks Ave,Rockville Centre,11570.0,US,"NYS GIS Program Office, State Geographic Information Officer (GIO)",2012.0
0101000020E6100000DF6C73637A6952C09561DC0DA2534440,Nassau,Rockville Centre,COND,The Park Lane,99 S. Park Ave. & Park Pl.,84,2.9,BUILT,1982,,,459,New York,40.653383000000005,-73.648095,1.0,intersection,,Park Pl,Rockville Centre,11570.0,US,TIGER/Line® dataset from the US Census Bureau,1982.0
0101000020E6100000B8CCE9B2985F52C0E066F16261584440,Nassau,Seaford,APT,Seaford Gardens,3760 Jerusalem Ave.,34,1.2,BUILT,1970,,,472,New York,40.690472,-73.493695,1.0,rooftop,3760,Jerusalem Ave,Seaford,11783.0,US,"NYS GIS Program Office, State Geographic Information Officer (GIO)",1970.0
0101000020E6100000984F560C576E52C034A0DE8C9A534440,Nassau,South Valley Stream,COND,Vanderbilt Park,Vanderbilt Way & Rosedale Rd.,35,4.0,BUILT,1985,,,476,New York,40.653154,-73.724063,0.92,intersection,,Rosedale Rd,Valley Stream,11581.0,US,TIGER/Line® dataset from the US Census Bureau,1985.0
0101000020E6100000922232ACE26552C01B12F758FA5E4440,Nassau,Uniondale,APT,Archstone Westbury (part),1299 Corporate Dr.,317,22.0,BUILT,2005,,,480,New York,40.742015,-73.59196,1.0,rooftop,1299,Corporate Dr,Westbury,11590.0,US,"NYS GIS Program Office, State Geographic Information Officer (GIO)",2005.0
0101000020E610000016C09481036652C0E62494BE105E4440,Nassau,Uniondale,COND,Avalon Garden City (part),800 Mitchel Field Way,44,3.0,BUILT,2013,,,481,New York,40.734885999999996,-73.593964,0.8,nearest_rooftop_match,802,Mitchel Field Way,Garden City,11530.0,US,"NYS GIS Program Office, State Geographic Information Officer (GIO)",2013.0
0101000020E610000016C09481036652C0E62494BE105E4440,Nassau,Uniondale,APT,Avalon Garden City (part),800 Mitchel Field Way,160,8.0,BUILT,2013,,,482,New York,40.734885999999996,-73.593964,0.8,nearest_rooftop_match,802,Mitchel Field Way,Garden City,11530.0,US,"NYS GIS Program Office, State Geographic Information Officer (GIO)",2013.0
0101000020E6100000A054FB743C6552C0AC74779D0D594440,Nassau,Uniondale,COND,Stratford Farms,1027 Jerusalem Ave.,41,3.3,BUILT,2001,,,488,New York,40.695728,-73.581815,1.0,rooftop,1027,Jerusalem Ave,Uniondale,11553.0,US,"NYS GIS Program Office, State Geographic Information Officer (GIO)",2001.0
0101000020E6100000861E317A6E6652C03F8BA548BE5E4440,Nassau,Uniondale,APT,The Vanderbilt,990 Corporate Dr.,178,9.5,BUILT,2018,,,490,New York,40.740182,-73.600493,0.8,nearest_rooftop_match,1000,Corporate Dr,Westbury,11590.0,US,"NYS GIS Program Office, State Geographic Information Officer (GIO)",2018.0
0101000020E6100000AEB6627FD96C52C089D1730B5D534440,Nassau,Valley Stream,APT,---,133 Dubois Ave.,11,0.3,BUILT,1975,,,492,New York,40.651277,-73.700775,1.0,rooftop,133,Dubois Ave,Valley Stream,11581.0,US,"NYS GIS Program Office, State Geographic Information Officer (GIO)",1975.0
0101000020E6100000271422E0104752C0B804E09F52634440,Suffolk,Bohemia,COND,The Pines at Bohemia,1330 Smithtown Ave.,20,3.8,UC,2019,SRCIT,,1589,New York,40.775959,-73.110405,1.0,rooftop,1330,Smithtown Ave,Bohemia,11716.0,US,"NYS GIS Program Office, State Geographic Information Officer (GIO)",2019.0
0101000020E61000001557957D576C52C024253D0CAD564440,Nassau,Valley Stream,APT,---,464 N. Corona Ave.,12,0.4,BUILT,1974,,,493,New York,40.677156,-73.69284,1.0,rooftop,464,N Corona Ave,Valley Stream,11580.0,US,"NYS GIS Program Office, State Geographic Information Officer (GIO)",1974.0
0101000020E6100000A48D23D6E26C52C074081C0934544440,Nassau,Valley Stream,APT,---,460 Rockaway Ave.,12,0.2,BUILT,1978,,,494,New York,40.657838,-73.70134499999999,1.0,rooftop,460,Rockaway Ave,Valley Stream,11581.0,US,"NYS GIS Program Office, State Geographic Information Officer (GIO)",1978.0
0101000020E61000000A14B188616D52C0E02BBAF59A564440,Nassau,Valley Stream,APT,---,303-315 N. Central Ave.,28,0.8,BUILT,1973,,,497,New York,40.676604,-73.709078,1.0,rooftop,315,N Central Ave,Valley Stream,11580.0,US,"NYS GIS Program Office, State Geographic Information Officer (GIO)",1973.0
0101000020E6100000228AC91B606C52C0501A6A1492564440,Nassau,Valley Stream,COND,Barclay at Valley Stream,446 N. Corona Ave.,12,0.7,BUILT,1981,,,499,New York,40.676333,-73.693366,1.0,rooftop,446,N Corona Ave,Valley Stream,11580.0,US,"NYS GIS Program Office, State Geographic Information Officer (GIO)",1981.0
0101000020E610000093567C43E16C52C01F662FDB4E534440,Nassau,Valley Stream,APT,Brooke Point,Gibson Blvd.(at Gibson LIRR),39,1.0,BUILT,2017,,,500,New York,40.650844,-73.701249,1.0,street_center,,Gibson Blvd,Valley Stream,11581.0,US,TIGER/Line® dataset from the US Census Bureau,2017.0
0101000020E61000007461A417B56B52C03AB187F6B1564440,Nassau,Valley Stream,APT,Cedar Ridge Terrace Apts.,1100 Peterhoff St.,10,0.3,BUILT,1973,,,501,New York,40.677306,-73.682928,1.0,rooftop,1100,Peterhoff St,Valley Stream,11580.0,US,"NYS GIS Program Office, State Geographic Information Officer (GIO)",1973.0
0101000020E61000006E1805C1E36C52C06E13EE9579534440,Nassau,Valley Stream,APT,Fairfield at Valley Stream,64 Gibson Blvd.,12,0.3,BUILT,1972,,,503,New York,40.652148,-73.701401,1.0,rooftop,64,Gibson Blvd,Valley Stream,11581.0,US,"NYS GIS Program Office, State Geographic Information Officer (GIO)",1972.0
0101000020E610000069723106D66C52C0E353008C67544440,Nassau,Valley Stream,APT,Sun Valley Towers,Rockaway Ave. & Brooklyn Ave.,72,,BUILT,2014,,,509,New York,40.65941,-73.700563,0.99,intersection,,Brooklyn Ave,Valley Stream,11581.0,US,TIGER/Line® dataset from the US Census Bureau,2014.0
0101000020E6100000F4A44C6A686C52C063EDEF6C8F564440,Nassau,Valley Stream,COND,Valley Condominium,426 N. Corona Ave.,10,0.7,BUILT,1981,,,511,New York,40.676252000000005,-73.693873,1.0,rooftop,426,N Corona Ave,Valley Stream,11580.0,US,"NYS GIS Program Office, State Geographic Information Officer (GIO)",1981.0
0101000020E6100000252191B6F16C52C01A53B0C6D9544440,Nassau,Valley Stream,COND,Valley Stream Park,98 S. Franklin Ave.,35,1.8,BUILT,1985,,,513,New York,40.662896,-73.702253,1.0,range_interpolation,98,S Franklin Ave,Valley Stream,11580.0,US,TIGER/Line® dataset from the US Census Bureau,1985.0
0101000020E61000007F85CC95416952C0EF7211DF89594440,Nassau,West Hempstead,APT,---,191 Woodfield Rd.,17,0.8,BUILT,1973 E,,,518,New York,40.69952,-73.644628,1.0,rooftop,191,Woodfield Rd,West Hempstead,11552.0,US,"NYS GIS Program Office, State Geographic Information Officer (GIO)",1973.0
0101000020E61000001A321EA5126952C0278925E5EE594440,Nassau,West Hempstead,APT,West 130,130 Hempstead Ave.,150,3.7,BUILT,2012,,,521,New York,40.702603,-73.641763,1.0,rooftop,130,Hempstead Ave,West Hempstead,11552.0,US,"NYS GIS Program Office, State Geographic Information Officer (GIO)",2012.0
0101000020E6100000850838842A6D52C011E335AFEA504440,Nassau,Woodmere,COND,Cedar Glen,Clubside Dr. & Conklin Ave.,40,4.4,BUILT,1988,,,526,New York,40.632162,-73.70572,0.96,intersection,,Clubside Dr,Woodmere,11598.0,US,TIGER/Line® dataset from the US Census Bureau,1988.0
0101000020E6100000C0CE4D9B716C52C0F1D6F9B7CB4A4440,Nassau,Long Beach,COOP,---,15 New Hampshire Ave.,10,0.2,BUILT,1986,,,537,New York,40.584342,-73.694434,1.0,rooftop,15,New Hampshire St,Long Beach,11561.0,US,"NYS GIS Program Office, State Geographic Information Officer (GIO)",1986.0
0101000020E6100000F06B2409C24C52C0C8D0B1834A664440,Suffolk,Central Islip,APT,The Haven,58 Adams Rd.,19,2.9,UC,2019,AFFORD,,1620,New York,40.799149,-73.199343,1.0,rooftop,58,Adams Rd,Central Islip,11722.0,US,"NYS GIS Program Office, State Geographic Information Officer (GIO)",2019.0
0101000020E610000097E13FDD406952C0AFEDED96E44A4440,Nassau,Long Beach,COND,---,655-663 E. Broadway,12,0.3,BUILT,1988,,,539,New York,40.585101,-73.644584,1.0,rooftop,663,E Broadway,Long Beach,11561.0,US,"NYS GIS Program Office, State Geographic Information Officer (GIO)",1988.0
0101000020E610000015713AC9566A52C0992D5915E14A4440,Nassau,Long Beach,COND,---,75 E. Broadway,12,0.3,BUILT,1988,,,540,New York,40.584994,-73.661547,1.0,rooftop,75,E Broadway,Long Beach,11561.0,US,"NYS GIS Program Office, State Geographic Information Officer (GIO)",1988.0
0101000020E6100000FE9DEDD11B6952C02AE620E8684B4440,Nassau,Long Beach,COND,---,~275 W. Broadway,14,0.5,BUILT,1995 E,,,541,New York,40.589139,-73.642323,1.0,place,,,Long Beach,11561.0,US,TIGER/Line® dataset from the US Census Bureau,1995.0
0101000020E6100000CD9541B5C16A52C07C48F8DEDF4A4440,Nassau,Long Beach,COND,---,123-135 W. Broadway,14,0.5,BUILT,1995 E,,,542,New York,40.584957,-73.66807299999999,1.0,rooftop,135,W Broadway,Long Beach,11561.0,US,"NYS GIS Program Office, State Geographic Information Officer (GIO)",1995.0
0101000020E61000004ED2FC31AD6A52C0DF88EE59D74A4440,Nassau,Long Beach,COND,---,National Blvd. & W. Broadway,18,,BUILT,1998 E,,,546,New York,40.584697,-73.666821,1.0,intersection,,National Blvd,Long Beach,11561.0,US,TIGER/Line® dataset from the US Census Bureau,1998.0
0101000020E61000004660AC6F606C52C08A58C4B0C34A4440,Nassau,Long Beach,APT,---,951 Oceanfront,32,0.3,BUILT,1975,,,551,New York,40.584097,-73.693386,1.0,rooftop,951,Oceanfront,Long Beach,11561.0,US,"NYS GIS Program Office, State Geographic Information Officer (GIO)",1975.0
0101000020E610000067F0F78BD93352C0724D81CCCE644440,Suffolk,Great River,COND,Westbrook Village (part),Christopher Dr.,100,37.8,UC,2018,SRCIT,,1636,New York,40.787561,-72.810153,1.0,street_center,,Christopher Dr,Center Moriches,11934.0,US,TIGER/Line® dataset from the US Census Bureau,2018.0
0101000020E610000067F0F78BD93352C0724D81CCCE644440,Suffolk,Great River,APT,Westbrook Village (part),Christopher Dr.,48,,UC,2017,SRCIT-AFFORD,,1637,New York,40.787561,-72.810153,1.0,street_center,,Christopher Dr,Center Moriches,11934.0,US,TIGER/Line® dataset from the US Census Bureau,2017.0
0101000020E610000067F0F78BD93352C0724D81CCCE644440,Suffolk,Great River,APT,Westbrook Village (part),Christopher Dr.,32,,UC,2017,SRCIT,,1638,New York,40.787561,-72.810153,1.0,street_center,,Christopher Dr,Center Moriches,11934.0,US,TIGER/Line® dataset from the US Census Bureau,2017.0
0101000020E6100000E2AE5E45464C52C07FDB1324B6674440,Suffolk,Hauppauge,APT,Cornerstone at Hauppauge,~2115 Joshua's Path,98,9.2,UC,2019,SRCIT,,1639,New York,40.810246,-73.191789,1.0,place,,,Hauppauge,11760.0,US,TIGER/Line® dataset from the US Census Bureau,2019.0
0101000020E6100000F56393FC886A52C04C8A8F4FC84A4440,Nassau,Long Beach,APT,Avalon Towers,10 W. Broadway,109,0.7,BUILT,1990,,,560,New York,40.584238,-73.664611,1.0,rooftop,10,W Broadway,Long Beach,11561.0,US,"NYS GIS Program Office, State Geographic Information Officer (GIO)",1990.0
0101000020E610000055DFF945096952C05DC136E2C94A4440,Nassau,Long Beach,COND,Azores II,"769-783 Shore Rd.,65-87 Pacifc",20,0.6,BUILT,1988,,,561,New York,40.584286,-73.641191,1.0,rooftop,783,Shore Rd,Long Beach,11561.0,US,"NYS GIS Program Office, State Geographic Information Officer (GIO)",1988.0
0101000020E61000003F558506626B52C01615713AC94A4440,Nassau,Long Beach,COND,Beachwalk Landing,440-450 W. Broadway,72,1.2,BUILT,1986,,,562,New York,40.584266,-73.677858,1.0,rooftop,450,W Broadway,Long Beach,11561.0,US,"NYS GIS Program Office, State Geographic Information Officer (GIO)",1986.0
0101000020E6100000D07B6308006952C068588CBAD64A4440,Nassau,Long Beach,COND,Leewood,70-98 Pacific Blvd.,36,0.9,BUILT,1985,,,583,New York,40.584678000000004,-73.640627,1.0,rooftop,98,Pacific Blvd,Long Beach,11561.0,US,"NYS GIS Program Office, State Geographic Information Officer (GIO)",1985.0
0101000020E6100000F146E6913F6952C099F38C7DC94A4440,Nassau,Long Beach,COND,Long Beach Town House,651-659 Shore Rd.,24,0.5,BUILT,1987,,,587,New York,40.584274,-73.64450500000001,1.0,rooftop,659,Shore Rd,Long Beach,11561.0,US,"NYS GIS Program Office, State Geographic Information Officer (GIO)",1987.0
0101000020E61000007CEE04FBAF6952C093020B60CA4A4440,Nassau,Long Beach,COND,Ocean Court,425 Shore Rd.,20,0.2,BUILT,1988,,,592,New York,40.584301,-73.65136600000001,1.0,rooftop,425,Shore Rd,Long Beach,11561.0,US,"NYS GIS Program Office, State Geographic Information Officer (GIO)",1988.0
0101000020E61000009A0AF148BC4A52C050E09D7C7A664440,Suffolk,Islandia,COND,Preserve at Islandia,1239 Old Nichols Rd.,72,9.9,UC,2019,SRCIT,,1661,New York,40.800613,-73.167742,1.0,rooftop,1239,Old Nichols Rd,Islandia,11749.0,US,"NYS GIS Program Office, State Geographic Information Officer (GIO)",2019.0
0101000020E6100000CA54C1A8A46B52C0DC7EF964C54A4440,Nassau,Long Beach,COND,Ocean Park Townhouse,615-627 Oceanfront & 600 W.Bwy,14,0.4,BUILT,1987,,,594,New York,40.584149,-73.681925,0.8,nearest_rooftop_match,623,Oceanfront,Long Beach,11561.0,US,"NYS GIS Program Office, State Geographic Information Officer (GIO)",1987.0
0101000020E61000006F826F9A3E6B52C0959EE925C64A4440,Nassau,Long Beach,COND,Ocean Villas Condominium,432-462 Oceanfront,16,,BUILT,1997,,,596,New York,40.584171999999995,-73.675696,1.0,rooftop,462,Oceanfront,Long Beach,11561.0,US,"NYS GIS Program Office, State Geographic Information Officer (GIO)",1997.0
0101000020E6100000266F8099EF6B52C06BD784B4C64A4440,Nassau,Long Beach,COND,Oceanwalk,780 W. Broadway,29,0.8,BUILT,1986,,,598,New York,40.584189,-73.686499,1.0,rooftop,780,W Broadway,Long Beach,11561.0,US,"NYS GIS Program Office, State Geographic Information Officer (GIO)",1986.0
0101000020E610000091F0BDBF416A52C0B74604E3E04A4440,Nassau,Long Beach,COND,Riverside Beach Condominiums,125 E. Broadway,98,,BUILT,2008,,,604,New York,40.584988,-73.660263,1.0,rooftop,125,E Broadway,Long Beach,11561.0,US,"NYS GIS Program Office, State Geographic Information Officer (GIO)",2008.0
0101000020E610000039B9DFA1286A52C0CE6E2D93E14A4440,Nassau,Long Beach,COOP,Sea Breeze,165 E. Broadway,16,0.5,BUILT,1986,,,609,New York,40.585009,-73.65873,1.0,rooftop,165,E Broadway,Long Beach,11561.0,US,"NYS GIS Program Office, State Geographic Information Officer (GIO)",1986.0
0101000020E6100000F33E8EE6C86952C0871A8524B34A4440,Nassau,Long Beach,COOP,Sea Pointe Towers,360 Shore Rd.,126,0.4,BUILT,1987,,,610,New York,40.583591999999996,-73.65288699999999,1.0,rooftop,360,Shore Rd,Long Beach,11561.0,US,"NYS GIS Program Office, State Geographic Information Officer (GIO)",1987.0
0101000020E610000080289831056A52C016DBA4A2B14A4440,Nassau,Long Beach,COOP,Seascape,250 Shore Rd.,50,0.4,BUILT,1988,,,613,New York,40.583546000000005,-73.65656700000001,1.0,rooftop,250,Shore Rd,Long Beach,11561.0,US,"NYS GIS Program Office, State Geographic Information Officer (GIO)",1988.0
0101000020E6100000EA23F0879F6A52C0DB5031CEDF4A4440,Nassau,Long Beach,COND,Seaview Condominium,51-59 W. Broadway,12,0.3,BUILT,1987,,,614,New York,40.584955,-73.665987,1.0,rooftop,59,W Broadway,Long Beach,11561.0,US,"NYS GIS Program Office, State Geographic Information Officer (GIO)",1987.0
0101000020E61000008CA19C68576952C05DC136E2C94A4440,Nassau,Long Beach,COND,Shore Villas,625 Shore Rd.,16,0.5,BUILT,1987,,,618,New York,40.584286,-73.64596,1.0,rooftop,625,Shore Rd,Long Beach,11561.0,US,"NYS GIS Program Office, State Geographic Information Officer (GIO)",1987.0
0101000020E6100000E9B985AE446952C0E486DF4DB74A4440,Nassau,Long Beach,COND,Surf East,650 Shore Rd.,117,0.7,BUILT,1972,,,625,New York,40.583719,-73.644817,1.0,rooftop,650,Shore Rd,Long Beach,11561.0,US,"NYS GIS Program Office, State Geographic Information Officer (GIO)",1972.0
0101000020E6100000D3BEB9BF7A6B52C09BC937DBDC4A4440,Nassau,Long Beach,COND,The Boardwalk,507-523 W. Broadway,16,0.6,BUILT,1983,,,631,New York,40.584865,-73.679367,1.0,rooftop,523,W Broadway,Long Beach,11561.0,US,"NYS GIS Program Office, State Geographic Information Officer (GIO)",1983.0
0101000020E6100000376DC669886B52C0895E46B1DC4A4440,Nassau,Long Beach,COND,The Boardwalk II,535-545 W. Broadway,12,0.5,BUILT,1984,,,632,New York,40.58486,-73.680201,1.0,rooftop,545,W Broadway,Long Beach,11561.0,US,"NYS GIS Program Office, State Geographic Information Officer (GIO)",1984.0
0101000020E61000000F7BA180ED6A52C051137D3ECA4A4440,Nassau,Long Beach,COND,The Breakers,220-230 W. Broadway,98,1.2,BUILT,1987,,,633,New York,40.584297,-73.670746,1.0,rooftop,230,W Broadway,Long Beach,11561.0,US,"NYS GIS Program Office, State Geographic Information Officer (GIO)",1987.0
0101000020E61000006440F67AF76A52C07CEF6FD05E4B4440,Nassau,Long Beach,COND,The Summit,235 W. Park Ave.,48,0.5,BUILT,1987,,,639,New York,40.588831,-73.671355,1.0,rooftop,235,W Park Ave,Long Beach,11561.0,US,"NYS GIS Program Office, State Geographic Information Officer (GIO)",1987.0
0101000020E6100000473CD9CD8C6952C093C83EC8B24A4440,Nassau,Long Beach,COND,Tides Edge,18 Franklin Blvd.,41,0.4,BUILT,1986,,,640,New York,40.583581,-73.64921899999999,1.0,rooftop,18,Franklin Blvd,Long Beach,11561.0,US,"NYS GIS Program Office, State Geographic Information Officer (GIO)",1986.0
0101000020E610000049F3C7B4366B52C07102D369DD4A4440,Nassau,Long Beach,COND,Villa Lafayette,375-385 W. Broadway,16,0.5,BUILT,1988,,,643,New York,40.584882,-73.675214,1.0,rooftop,385,W Broadway,Long Beach,11561.0,US,"NYS GIS Program Office, State Geographic Information Officer (GIO)",1988.0
0101000020E6100000D2C77C40A06A52C05B25581CCE4A4440,Nassau,Long Beach,COND,White Sands,50 W. Broadway,45,,BUILT,2008,,,646,New York,40.584415,-73.666031,1.0,rooftop,50,W Broadway,Long Beach,11561.0,US,"NYS GIS Program Office, State Geographic Information Officer (GIO)",2008.0
0101000020E6100000371AC05B206952C034D769A4A5624440,Nassau,Albertson,COND,Coventry Townhouse,150 I. U. Willets Rd.,14,0.5,BUILT,1987,,,647,New York,40.77068,-73.6426,1.0,rooftop,150,I U Willets Rd,Albertson,11507.0,US,"NYS GIS Program Office, State Geographic Information Officer (GIO)",1987.0
0101000020E6100000BC24CE8AA86A52C011FE45D0986B4440,Nassau,Flower Hill,COND,Harbor Village,West Shore Rd.,33,4.7,BUILT,1983,,,654,New York,40.840601,-73.666537,1.0,street_center,,W Shore Rd,Port Washington,11050.0,US,TIGER/Line® dataset from the US Census Bureau,1983.0
0101000020E6100000DDD3D51D8B6D52C09B1DA9BEF3654440,Nassau,Great Neck,APT,Avalon,240 East Shore Rd.,191,4.0,BUILT,2017,,,661,New York,40.796501,-73.711616,1.0,rooftop,240,E Shore Rd,Great Neck,11023.0,US,"NYS GIS Program Office, State Geographic Information Officer (GIO)",2017.0
0101000020E6100000DC4944F8176F52C0F294D5743D674440,Nassau,Great Neck,APT,Oxford Plaza,720 Middle Neck Rd.,52,,BUILT,2007,,,667,New York,40.806563,-73.735838,1.0,rooftop,720,Middle Neck Rd,Great Neck,11024.0,US,"NYS GIS Program Office, State Geographic Information Officer (GIO)",2007.0
0101000020E6100000BD1C76DF316E52C0C13A8E1F2A654440,Nassau,Great Neck Plaza,COND,---,20 Gilchrest Rd.,16,0.3,BUILT,1975,,,676,New York,40.790348,-73.72179399999999,1.0,rooftop,20,Gilchrest Rd,Great Neck,11021.0,US,"NYS GIS Program Office, State Geographic Information Officer (GIO)",1975.0
0101000020E61000004F948444DA6E52C07EACE0B721644440,Nassau,Great Neck Plaza,COND,---,237 Great Neck Rd.,20,0.2,BUILT,1989,,,677,New York,40.782278999999996,-73.732072,1.0,rooftop,237,Great Neck Rd,Great Neck,11021.0,US,"NYS GIS Program Office, State Geographic Information Officer (GIO)",1989.0
0101000020E610000022FC8BA0316E52C025E99AC937654440,Nassau,Great Neck Plaza,APT,---,28 Gilchrest Rd.,40,0.6,BUILT,1981,,,678,New York,40.790765,-73.721779,1.0,rooftop,28,Gilchrest Rd,Great Neck,11021.0,US,"NYS GIS Program Office, State Geographic Information Officer (GIO)",1981.0
